[
  {
    "cod. oficina": 4934,
    "zinc 1  -7119": "adra",
    "direccion": "cl natalio rivas, 77",
    "plaza": "adra",
    "cp": "04770",
    "tipo": "universal",
    "territorial": "andalucia",
    "tecnico": "naira martinez",
    "fase": "fase i",
    "google_maps_address": "cl natalio rivas, 77, 04770, adra, andalucia, Spain",
    "lat": 36.74834,
    "lng": -3.01763,
    "is_done": false
  },
  {
    "cod. oficina": 4446,
    "zinc 1  -7119": "aguadulce-roquetas",
    "direccion": "cl encinar, 25",
    "plaza": "aguadulce",
    "cp": "04720",
    "tipo": "universal",
    "territorial": "andalucia",
    "tecnico": "naira martinez",
    "fase": "fase i",
    "google_maps_address": "cl encinar, 25, 04720, aguadulce, andalucia, Spain",
    "lat": 36.81358,
    "lng": -2.57255,
    "is_done": false
  },
  {
    "cod. oficina": 2792,
    "zinc 1  -7119": "aguilar de la frontera",
    "direccion": "cl moralejo, 35",
    "plaza": "aguilar de la frontera",
    "cp": "14920",
    "tipo": "universal",
    "territorial": "andalucia",
    "tecnico": "miguel herrera",
    "fase": "fase i",
    "google_maps_address": "cl moralejo, 35, 14920, aguilar de la frontera, andalucia, Spain",
    "lat": 37.5161,
    "lng": -4.65781,
    "is_done": false
  },
  {
    "cod. oficina": 241,
    "zinc 1  -7119": "alcala del rio",
    "direccion": "av andalucia, 56",
    "plaza": "alcala del rio",
    "cp": "41200",
    "tipo": "universal",
    "territorial": "andalucia",
    "tecnico": "miguel herrera",
    "fase": "fase i",
    "google_maps_address": "av andalucia, 56, 41200, alcala del rio, andalucia, Spain",
    "lat": 37.52059,
    "lng": -5.9803,
    "is_done": false
  },
  {
    "cod. oficina": 1620,
    "zinc 1  -7119": "alcala la real, capuchinos, 1",
    "direccion": "cl capuchinos, 1",
    "plaza": "alcala la real",
    "cp": "23680",
    "tipo": "universal",
    "territorial": "andalucia",
    "tecnico": "naira martinez",
    "fase": "fase i",
    "google_maps_address": "cl capuchinos, 1, 23680, alcala la real, andalucia, Spain",
    "lat": 37.46085,
    "lng": -3.92306,
    "is_done": false
  },
  {
    "cod. oficina": 7381,
    "zinc 1  -7119": "alcaudete, campiña, 2",
    "direccion": "cl campiña, 2",
    "plaza": "alcaudete",
    "cp": "23660",
    "tipo": "universal",
    "territorial": "andalucia",
    "tecnico": "naira martinez",
    "fase": "fase i",
    "google_maps_address": "cl campiña, 2, 23660, alcaudete, andalucia, Spain",
    "lat": 37.59133,
    "lng": -4.0866,
    "is_done": false
  },
  {
    "cod. oficina": 7329,
    "zinc 1  -7119": "alhama de granada",
    "direccion": "pz duque de mandas, 31",
    "plaza": "alhama de granada",
    "cp": "18120",
    "tipo": "universal",
    "territorial": "andalucia",
    "tecnico": "naira martinez",
    "fase": "fase i",
    "google_maps_address": "pz duque de mandas, 31, 18120, alhama de granada, andalucia, Spain",
    "lat": 37.00408,
    "lng": -3.99125,
    "is_done": false
  },
  {
    "cod. oficina": 6514,
    "zinc 1  -7119": "alhaurin de la torre",
    "direccion": "av cristobal colon, 17",
    "plaza": "alhaurin de la torre",
    "cp": "29130",
    "tipo": "universal",
    "territorial": "andalucia",
    "tecnico": "naira martinez",
    "fase": "fase i",
    "google_maps_address": "av cristobal colon, 17, 29130, alhaurin de la torre, andalucia, Spain",
    "lat": 36.66037,
    "lng": -4.56176,
    "is_done": false
  },
  {
    "cod. oficina": 3359,
    "zinc 1  -7119": "alhendin , aragon  1",
    "direccion": "cl aragon, 1",
    "plaza": "alhendin",
    "cp": "18620",
    "tipo": "universal",
    "territorial": "andalucia",
    "tecnico": "naira martinez",
    "fase": "fase i",
    "google_maps_address": "cl aragon, 1, 18620, alhendin, andalucia, Spain",
    "lat": 37.10732,
    "lng": -3.64248,
    "is_done": false
  },
  {
    "cod. oficina": 1775,
    "zinc 1  -7119": "almeria, benizalon, s-n",
    "direccion": "cl benizalon, s-n (edif. celulosa ii -cortijo grande-)",
    "plaza": "almeria",
    "cp": "04007",
    "tipo": "universal",
    "territorial": "andalucia",
    "tecnico": "naira martinez",
    "fase": "fase i",
    "google_maps_address": "cl benizalon, s-n (edif. celulosa ii -cortijo grande-), 04007, almeria, andalucia, Spain",
    "lat": 36.83652,
    "lng": -2.44438,
    "is_done": false
  },
  {
    "cod. oficina": 3786,
    "zinc 1  -7119": "almeria, hermanos pinzon,48",
    "direccion": "cl hermanos pinzon, 48",
    "plaza": "almeria",
    "cp": "04005",
    "tipo": "universal",
    "territorial": "andalucia",
    "tecnico": "naira martinez",
    "fase": "fase i",
    "google_maps_address": "cl hermanos pinzon, 48, 04005, almeria, andalucia, Spain",
    "lat": 36.84043,
    "lng": -2.4552,
    "is_done": false
  },
  {
    "cod. oficina": 349,
    "zinc 1  -7119": "almonte",
    "direccion": "cl el cerro, 1",
    "plaza": "almonte",
    "cp": "21730",
    "tipo": "universal",
    "territorial": "andalucia",
    "tecnico": "miguel herrera",
    "fase": "fase i",
    "google_maps_address": "cl el cerro, 1, 21730, almonte, andalucia, Spain",
    "lat": 37.26272,
    "lng": -6.51695,
    "is_done": false
  },
  {
    "cod. oficina": 7260,
    "zinc 1  -7119": "almuñecar, ps. del altillo, 4",
    "direccion": "ps del altillo, 4",
    "plaza": "almuñecar",
    "cp": "18690",
    "tipo": "universal",
    "territorial": "andalucia",
    "tecnico": "naira martinez",
    "fase": "fase i",
    "google_maps_address": "ps del altillo, 4, 18690, almuñecar, andalucia, Spain",
    "lat": 36.73181,
    "lng": -3.68951,
    "is_done": false
  },
  {
    "cod. oficina": 4629,
    "zinc 1  -7119": "antequera",
    "direccion": "cl infante don fernando, 79",
    "plaza": "antequera",
    "cp": "29200",
    "tipo": "universal",
    "territorial": "andalucia",
    "tecnico": "naira martinez",
    "fase": "fase i",
    "google_maps_address": "cl infante don fernando, 79, 29200, antequera, andalucia, Spain",
    "lat": 37.02062,
    "lng": -4.56401,
    "is_done": false
  },
  {
    "cod. oficina": 4424,
    "zinc 1  -7119": "aracena , infantes d.carlos y dña luisa  3",
    "direccion": "av infantes d.carlos y dña luisa, 3",
    "plaza": "aracena",
    "cp": "21200",
    "tipo": "universal",
    "territorial": "andalucia",
    "tecnico": "miguel herrera",
    "fase": "fase i",
    "google_maps_address": "av infantes d.carlos y dña luisa, 3, 21200, aracena, andalucia, Spain",
    "lat": 37.89355,
    "lng": -6.56189,
    "is_done": false
  },
  {
    "cod. oficina": 3502,
    "zinc 1  -7119": "arahal",
    "direccion": "pz de la corredera, 3",
    "plaza": "arahal",
    "cp": "41600",
    "tipo": "universal",
    "territorial": "andalucia",
    "tecnico": "miguel herrera",
    "fase": "fase i",
    "google_maps_address": "pz de la corredera, 3, 41600, arahal, andalucia, Spain",
    "lat": 37.26137,
    "lng": -5.54624,
    "is_done": false
  },
  {
    "cod. oficina": 139,
    "zinc 1  -7119": "arcos de la frontera",
    "direccion": "cl corredera, 63",
    "plaza": "arcos de la frontera",
    "cp": "11630",
    "tipo": "universal",
    "territorial": "andalucia",
    "tecnico": "miguel herrera",
    "fase": "fase i",
    "google_maps_address": "cl corredera, 63, 11630, arcos de la frontera, andalucia, Spain",
    "lat": 36.75053,
    "lng": -5.81119,
    "is_done": false
  },
  {
    "cod. oficina": 7001,
    "zinc 1  -7119": "armilla, real de motril, 0",
    "direccion": "cl real de motril,  (es c-jardines)",
    "plaza": "armilla",
    "cp": "18100",
    "tipo": "universal",
    "territorial": "andalucia",
    "tecnico": "naira martinez",
    "fase": "fase i",
    "google_maps_address": "cl real de motril,  (es c-jardines), 18100, armilla, andalucia, Spain",
    "lat": 37.14205,
    "lng": -3.62677,
    "is_done": false
  },
  {
    "cod. oficina": 2336,
    "zinc 1  -7119": "ayamonte",
    "direccion": "cl cristobal colon, 16",
    "plaza": "ayamonte",
    "cp": "21400",
    "tipo": "universal",
    "territorial": "andalucia",
    "tecnico": "miguel herrera",
    "fase": "fase i",
    "google_maps_address": "cl cristobal colon, 16, 21400, ayamonte, andalucia, Spain",
    "lat": 37.21387,
    "lng": -7.40799,
    "is_done": false
  },
  {
    "cod. oficina": 5534,
    "zinc 1  -7119": "baena",
    "direccion": "cl llano del rincon, 4",
    "plaza": "baena",
    "cp": "14850",
    "tipo": "universal",
    "territorial": "andalucia",
    "tecnico": "miguel herrera",
    "fase": "fase i",
    "google_maps_address": "cl llano del rincon, 4, 14850, baena, andalucia, Spain",
    "lat": 37.61616,
    "lng": -4.32389,
    "is_done": false
  },
  {
    "cod. oficina": 1350,
    "zinc 1  -7119": "baeza , portales mercaderes  6",
    "direccion": "cl portales mercaderes, 6",
    "plaza": "baeza",
    "cp": "23440",
    "tipo": "universal",
    "territorial": "andalucia",
    "tecnico": "naira martinez",
    "fase": "fase i",
    "google_maps_address": "cl portales mercaderes, 6, 23440, baeza, andalucia, Spain",
    "lat": 37.99293,
    "lng": -3.46847,
    "is_done": false
  },
  {
    "cod. oficina": 2347,
    "zinc 1  -7119": "barbate",
    "direccion": "av del mar, 68",
    "plaza": "barbate",
    "cp": "11160",
    "tipo": "universal",
    "territorial": "andalucia",
    "tecnico": "miguel herrera",
    "fase": "fase i",
    "google_maps_address": "av del mar, 68, 11160, barbate, andalucia, Spain",
    "lat": 36.19002,
    "lng": -5.92248,
    "is_done": false
  },
  {
    "cod. oficina": 4398,
    "zinc 1  -7119": "baza , de san francisco  1",
    "direccion": "pz de san francisco, 1",
    "plaza": "baza",
    "cp": "18800",
    "tipo": "universal",
    "territorial": "andalucia",
    "tecnico": "naira martinez",
    "fase": "fase i",
    "google_maps_address": "pz de san francisco, 1, 18800, baza, andalucia, Spain",
    "lat": 37.48863,
    "lng": -2.77228,
    "is_done": false
  },
  {
    "cod. oficina": 3011,
    "zinc 1  -7119": "benalmadena, antonio machado,18",
    "direccion": "cl antonio machado, 18",
    "plaza": "benalmadena",
    "cp": "29639",
    "tipo": "universal",
    "territorial": "andalucia",
    "tecnico": "naira martinez",
    "fase": "fase i",
    "google_maps_address": "cl antonio machado, 18, 29639, benalmadena, andalucia, Spain",
    "lat": 36.58085,
    "lng": -4.55505,
    "is_done": false
  },
  {
    "cod. oficina": 1967,
    "zinc 1  -7119": "bollullos par del condado",
    "direccion": "av de la constitucion, 34",
    "plaza": "bollullos par del condado",
    "cp": "21710",
    "tipo": "universal",
    "territorial": "andalucia",
    "tecnico": "miguel herrera",
    "fase": "fase i",
    "google_maps_address": "av de la constitucion, 34, 21710, bollullos par del condado, andalucia, Spain",
    "lat": 37.38678,
    "lng": -6.60972,
    "is_done": false
  },
  {
    "cod. oficina": 1742,
    "zinc 1  -7119": "bormujos",
    "direccion": "av aljarafe, 25 (b)",
    "plaza": "bormujos",
    "cp": "41930",
    "tipo": "universal",
    "territorial": "andalucia",
    "tecnico": "miguel herrera",
    "fase": "fase i",
    "google_maps_address": "av aljarafe, 25 (b), 41930, bormujos, andalucia, Spain",
    "lat": 37.37266,
    "lng": -6.0713,
    "is_done": false
  },
  {
    "cod. oficina": 7198,
    "zinc 1  -7119": "brenes, morales gomez, 25",
    "direccion": "cl morales gomez, 25",
    "plaza": "brenes",
    "cp": "41310",
    "tipo": "universal",
    "territorial": "andalucia",
    "tecnico": "miguel herrera",
    "fase": "fase i",
    "google_maps_address": "cl morales gomez, 25, 41310, brenes, andalucia, Spain",
    "lat": 37.54799,
    "lng": -5.87214,
    "is_done": false
  },
  {
    "cod. oficina": 330,
    "zinc 1  -7119": "las cabezas de san juan",
    "direccion": "cl practicante jose toajas, 26",
    "plaza": "cabezas de san juan",
    "cp": "41730",
    "tipo": "universal",
    "territorial": "andalucia",
    "tecnico": "miguel herrera",
    "fase": "fase i",
    "google_maps_address": "cl practicante jose toajas, 26, 41730, cabezas de san juan, andalucia, Spain",
    "lat": 36.9843,
    "lng": -5.93876,
    "is_done": false
  },
  {
    "cod. oficina": 5539,
    "zinc 1  -7119": "cabra",
    "direccion": "av jose solis, 81",
    "plaza": "cabra",
    "cp": "14940",
    "tipo": "universal",
    "territorial": "andalucia",
    "tecnico": "miguel herrera",
    "fase": "fase i",
    "google_maps_address": "av jose solis, 81, 14940, cabra, andalucia, Spain",
    "lat": 37.47438,
    "lng": -4.44261,
    "is_done": false
  },
  {
    "cod. oficina": 536,
    "zinc 1  -7119": "cadiz, av. ana de viya,7",
    "direccion": "av ana de viya, 7",
    "plaza": "cadiz",
    "cp": "11009",
    "tipo": "universal",
    "territorial": "andalucia",
    "tecnico": "miguel herrera",
    "fase": "fase i",
    "google_maps_address": "av ana de viya, 7, 11009, cadiz, andalucia, Spain",
    "lat": 36.51184,
    "lng": -6.27971,
    "is_done": false
  },
  {
    "cod. oficina": 5792,
    "zinc 1  -7119": "calahonda, c.c.valdepinos",
    "direccion": "cl calypso, cc valdepinos, s-n",
    "plaza": "calahonda (mijas)",
    "cp": "29649",
    "tipo": "universal",
    "territorial": "andalucia",
    "tecnico": "naira martinez",
    "fase": "fase i",
    "google_maps_address": "cl calypso, cc valdepinos, s-n, 29649, calahonda (mijas), andalucia, Spain",
    "lat": 36.4906,
    "lng": -4.70989,
    "is_done": false
  },
  {
    "cod. oficina": 452,
    "zinc 1  -7119": "camas",
    "direccion": "cl alcalde manuel marin, 1",
    "plaza": "camas",
    "cp": "41900",
    "tipo": "universal",
    "territorial": "andalucia",
    "tecnico": "miguel herrera",
    "fase": "fase i",
    "google_maps_address": "cl alcalde manuel marin, 1, 41900, camas, andalucia, Spain",
    "lat": 37.40098,
    "lng": -6.03469,
    "is_done": false
  },
  {
    "cod. oficina": 7087,
    "zinc 1  -7119": "campanillas",
    "direccion": "cl jose calderon, 79",
    "plaza": "campanillas",
    "cp": "29590",
    "tipo": "universal",
    "territorial": "andalucia",
    "tecnico": "naira martinez",
    "fase": "fase i",
    "google_maps_address": "cl jose calderon, 79, 29590, campanillas, andalucia, Spain",
    "lat": 36.72502,
    "lng": -4.54064,
    "is_done": false
  },
  {
    "cod. oficina": 3971,
    "zinc 1  -7119": "campohermoso",
    "direccion": "cr de iryda, s-n",
    "plaza": "campohermoso",
    "cp": "04110",
    "tipo": "universal",
    "territorial": "andalucia",
    "tecnico": "naira martinez",
    "fase": "fase i",
    "google_maps_address": "cr de iryda, s-n, 04110, campohermoso, andalucia, Spain",
    "lat": 36.93382,
    "lng": -2.13566,
    "is_done": false
  },
  {
    "cod. oficina": 7150,
    "zinc 1  -7119": "cartama, av. de andalucia, 27",
    "direccion": "av de andalucia, 27 (ed el pozo)",
    "plaza": "cartama",
    "cp": "29580",
    "tipo": "universal",
    "territorial": "andalucia",
    "tecnico": "naira martinez",
    "fase": "fase i",
    "google_maps_address": "av de andalucia, 27 (ed el pozo), 29580, cartama, andalucia, Spain",
    "lat": 36.73636,
    "lng": -4.60449,
    "is_done": false
  },
  {
    "cod. oficina": 2407,
    "zinc 1  -7119": "cartaya",
    "direccion": "cl de la plaza, 46",
    "plaza": "cartaya",
    "cp": "21450",
    "tipo": "universal",
    "territorial": "andalucia",
    "tecnico": "miguel herrera",
    "fase": "fase i",
    "google_maps_address": "cl de la plaza, 46, 21450, cartaya, andalucia, Spain",
    "lat": 37.28407,
    "lng": -7.1532,
    "is_done": false
  },
  {
    "cod. oficina": 7275,
    "zinc 1  -7119": "cazorla, doctor muñoz, 8",
    "direccion": "cl doctor muñoz, 8",
    "plaza": "cazorla",
    "cp": "23470",
    "tipo": "universal",
    "territorial": "andalucia",
    "tecnico": "naira martinez",
    "fase": "fase i",
    "google_maps_address": "cl doctor muñoz, 8, 23470, cazorla, andalucia, Spain",
    "lat": 37.91179,
    "lng": -3.00267,
    "is_done": false
  },
  {
    "cod. oficina": 414,
    "zinc 1  -7119": "chipiona",
    "direccion": "pz pio xii, 2",
    "plaza": "chipiona",
    "cp": "11550",
    "tipo": "universal",
    "territorial": "andalucia",
    "tecnico": "miguel herrera",
    "fase": "fase i",
    "google_maps_address": "pz pio xii, 2, 11550, chipiona, andalucia, Spain",
    "lat": 36.73874,
    "lng": -6.43555,
    "is_done": false
  },
  {
    "cod. oficina": 1931,
    "zinc 1  -7119": "malaga (churriana)",
    "direccion": "cl periodista juan rando, 1",
    "plaza": "churriana",
    "cp": "29140",
    "tipo": "universal",
    "territorial": "andalucia",
    "tecnico": "naira martinez",
    "fase": "fase i",
    "google_maps_address": "cl periodista juan rando, 1, 29140, churriana, andalucia, Spain",
    "lat": 36.66123,
    "lng": -4.49973,
    "is_done": false
  },
  {
    "cod. oficina": 1379,
    "zinc 1  -7119": "coin , escamilla  11",
    "direccion": "pz escamilla, 11",
    "plaza": "coin",
    "cp": "29100",
    "tipo": "universal",
    "territorial": "andalucia",
    "tecnico": "naira martinez",
    "fase": "fase i",
    "google_maps_address": "pz escamilla, 11, 29100, coin, andalucia, Spain",
    "lat": 36.65976,
    "lng": -4.758,
    "is_done": false
  },
  {
    "cod. oficina": 410,
    "zinc 1  -7119": "conil de la frontera",
    "direccion": "pz jose manuel garcia caparros, 1 (local)",
    "plaza": "conil de la frontera",
    "cp": "11140",
    "tipo": "universal",
    "territorial": "andalucia",
    "tecnico": "miguel herrera",
    "fase": "fase i",
    "google_maps_address": "pz jose manuel garcia caparros, 1 (local), 11140, conil de la frontera, andalucia, Spain",
    "lat": 36.27661,
    "lng": -6.08633,
    "is_done": false
  },
  {
    "cod. oficina": 1778,
    "zinc 1  -7119": "cordoba,av.arroyo del moro",
    "direccion": "av arroyo del moro, s-n",
    "plaza": "cordoba",
    "cp": "14011",
    "tipo": "universal",
    "territorial": "andalucia",
    "tecnico": "miguel herrera",
    "fase": "fase i",
    "google_maps_address": "av arroyo del moro, s-n, 14011, cordoba, andalucia, Spain",
    "lat": 37.8892,
    "lng": -4.79707,
    "is_done": false
  },
  {
    "cod. oficina": 4909,
    "zinc 1  -7119": "cordoba, perpetuo socorro,18",
    "direccion": "cl virgen perpetuo socorro, 18",
    "plaza": "cordoba",
    "cp": "14004",
    "tipo": "universal",
    "territorial": "andalucia",
    "tecnico": "miguel herrera",
    "fase": "fase i",
    "google_maps_address": "cl virgen perpetuo socorro, 18, 14004, cordoba, andalucia, Spain",
    "lat": 37.87994,
    "lng": -4.78694,
    "is_done": false
  },
  {
    "cod. oficina": 5701,
    "zinc 1  -7119": "cordoba, av. almogavares,54",
    "direccion": "av almogavares, 54",
    "plaza": "cordoba",
    "cp": "14006",
    "tipo": "universal",
    "territorial": "andalucia",
    "tecnico": "miguel herrera",
    "fase": "fase i",
    "google_maps_address": "av almogavares, 54, 14006, cordoba, andalucia, Spain",
    "lat": 37.89752,
    "lng": -4.77811,
    "is_done": false
  },
  {
    "cod. oficina": 4277,
    "zinc 1  -7119": "cordoba , gran capitan  20",
    "direccion": "av gran capitan, 20",
    "plaza": "cordoba",
    "cp": "14001",
    "tipo": "universal",
    "territorial": "andalucia",
    "tecnico": "miguel herrera",
    "fase": "fase i",
    "google_maps_address": "av gran capitan, 20, 14001, cordoba, andalucia, Spain",
    "lat": 37.88799,
    "lng": -4.7824,
    "is_done": false
  },
  {
    "cod. oficina": 286,
    "zinc 1  -7119": "coria del rio",
    "direccion": "coria del rioc",
    "plaza": "coria del rio",
    "cp": "41100",
    "tipo": "universal",
    "territorial": "andalucia",
    "tecnico": "miguel herrera",
    "fase": "fase i",
    "google_maps_address": "coria del rioc, 41100, coria del rio, andalucia, Spain",
    "lat": 37.28865,
    "lng": -6.05296,
    "is_done": false
  },
  {
    "cod. oficina": 4574,
    "zinc 1  -7119": "corrales",
    "direccion": "av alcalde jose rodriguez gonzalez, s-n",
    "plaza": "corrales",
    "cp": "21120",
    "tipo": "universal",
    "territorial": "andalucia",
    "tecnico": "miguel herrera",
    "fase": "fase i",
    "google_maps_address": "av alcalde jose rodriguez gonzalez, s-n, 21120, corrales, andalucia, Spain",
    "lat": 37.27208,
    "lng": -6.99073,
    "is_done": false
  },
  {
    "cod. oficina": 1749,
    "zinc 1  -7119": "dos hermanas,pl.de parma, 8",
    "direccion": "pz de parma, 8 (montequinto)",
    "plaza": "dos hermanas",
    "cp": "41089",
    "tipo": "universal",
    "territorial": "andalucia",
    "tecnico": "miguel herrera",
    "fase": "fase i",
    "google_maps_address": "pz de parma, 8 (montequinto), 41089, dos hermanas, andalucia, Spain",
    "lat": 37.33947,
    "lng": -5.93271,
    "is_done": false
  },
  {
    "cod. oficina": 353,
    "zinc 1  -7119": "durcal",
    "direccion": "cl doctor perez carrillo, 22",
    "plaza": "durcal",
    "cp": "18650",
    "tipo": "universal",
    "territorial": "andalucia",
    "tecnico": "naira martinez",
    "fase": "fase i",
    "google_maps_address": "cl doctor perez carrillo, 22, 18650, durcal, andalucia, Spain",
    "lat": 36.98873,
    "lng": -3.56761,
    "is_done": false
  },
  {
    "cod. oficina": 4337,
    "zinc 1  -7119": "el morche -torrox",
    "direccion": "cr almeria cruce camino velez, s/n (conjunto los lentiscares local 7)",
    "plaza": "el morche -torrox-",
    "cp": "29793",
    "tipo": "universal",
    "territorial": "andalucia",
    "tecnico": "naira martinez",
    "fase": "fase i",
    "google_maps_address": "cr almeria cruce camino velez, s/n (conjunto los lentiscares local 7), 29793, el morche -torrox-, andalucia, Spain",
    "lat": 36.73497,
    "lng": -3.97683,
    "is_done": false
  },
  {
    "cod. oficina": 299,
    "zinc 1  -7119": "el viso del alcor",
    "direccion": "cl real, 45",
    "plaza": "el viso del alcor",
    "cp": "41520",
    "tipo": "universal",
    "territorial": "andalucia",
    "tecnico": "miguel herrera",
    "fase": "fase i",
    "google_maps_address": "cl real, 45, 41520, el viso del alcor, andalucia, Spain",
    "lat": 37.38618,
    "lng": -5.72176,
    "is_done": false
  },
  {
    "cod. oficina": 7312,
    "zinc 1  -7119": "fuente palmera, mendez nuñez, 5",
    "direccion": "cl mendez nuñez, 5",
    "plaza": "fuente palmera",
    "cp": "14120",
    "tipo": "universal",
    "territorial": "andalucia",
    "tecnico": "miguel herrera",
    "fase": "fase i",
    "google_maps_address": "cl mendez nuñez, 5, 14120, fuente palmera, andalucia, Spain",
    "lat": 37.70407,
    "lng": -5.10403,
    "is_done": false
  },
  {
    "cod. oficina": 4396,
    "zinc 1  -7119": "garrucha",
    "direccion": "cl mayor, 27",
    "plaza": "garrucha",
    "cp": "04630",
    "tipo": "universal",
    "territorial": "andalucia",
    "tecnico": "naira martinez",
    "fase": "fase i",
    "google_maps_address": "cl mayor, 27, 04630, garrucha, andalucia, Spain",
    "lat": 37.18286,
    "lng": -1.82111,
    "is_done": false
  },
  {
    "cod. oficina": 164,
    "zinc 1  -7119": "granada, acera del casino, 5",
    "direccion": "cl acera del casino, 5",
    "plaza": "granada",
    "cp": "18009",
    "tipo": "universal",
    "territorial": "andalucia",
    "tecnico": "naira martinez",
    "fase": "fase i",
    "google_maps_address": "cl acera del casino, 5, 18009, granada, andalucia, Spain",
    "lat": 37.17282,
    "lng": -3.59917,
    "is_done": false
  },
  {
    "cod. oficina": 1621,
    "zinc 1  -7119": "granada, av. de dilar, 26",
    "direccion": "av de dilar, 26",
    "plaza": "granada",
    "cp": "18006",
    "tipo": "universal",
    "territorial": "andalucia",
    "tecnico": "naira martinez",
    "fase": "fase i",
    "google_maps_address": "av de dilar, 26, 18006, granada, andalucia, Spain",
    "lat": 37.15847,
    "lng": -3.60014,
    "is_done": false
  },
  {
    "cod. oficina": 3085,
    "zinc 1  -7119": "guadix, av. medina olmos, 41",
    "direccion": "av medina olmos, 41",
    "plaza": "guadix",
    "cp": "18500",
    "tipo": "universal",
    "territorial": "andalucia",
    "tecnico": "naira martinez",
    "fase": "fase i",
    "google_maps_address": "av medina olmos, 41, 18500, guadix, andalucia, Spain",
    "lat": 37.30008,
    "lng": -3.13112,
    "is_done": false
  },
  {
    "cod. oficina": 7370,
    "zinc 1  -7119": "huercal de almeria, cr. de almeria, 136",
    "direccion": "cr de almeria, 136",
    "plaza": "huercal de almeria",
    "cp": "04230",
    "tipo": "universal",
    "territorial": "andalucia",
    "tecnico": "naira martinez",
    "fase": "fase i",
    "google_maps_address": "cr de almeria, 136, 04230, huercal de almeria, andalucia, Spain",
    "lat": 36.8755,
    "lng": -2.44021,
    "is_done": false
  },
  {
    "cod. oficina": 4420,
    "zinc 1  -7119": "huercal-overa",
    "direccion": "pz mayor, s n",
    "plaza": "huercal overa",
    "cp": "04600",
    "tipo": "universal",
    "territorial": "andalucia",
    "tecnico": "naira martinez",
    "fase": "fase i",
    "google_maps_address": "pz mayor, s n, 04600, huercal overa, andalucia, Spain",
    "lat": 37.39298,
    "lng": -1.94364,
    "is_done": false
  },
  {
    "cod. oficina": 3327,
    "zinc 1  -7119": "huescar , mayor  3",
    "direccion": "pz mayor, 3",
    "plaza": "huescar",
    "cp": "18830",
    "tipo": "universal",
    "territorial": "andalucia",
    "tecnico": "naira martinez",
    "fase": "fase i",
    "google_maps_address": "pz mayor, 3, 18830, huescar, andalucia, Spain",
    "lat": 37.80932,
    "lng": -2.53987,
    "is_done": false
  },
  {
    "cod. oficina": 4563,
    "zinc 1  -7119": "jerez frontera, av. voltaire",
    "direccion": "av voltaire, s-n (loc.9 bajo)",
    "plaza": "jerez de la frontera",
    "cp": "11405",
    "tipo": "universal",
    "territorial": "andalucia",
    "tecnico": "miguel herrera",
    "fase": "fase i",
    "google_maps_address": "av voltaire, s-n (loc.9 bajo), 11405, jerez de la frontera, andalucia, Spain",
    "lat": 36.70514,
    "lng": -6.11507,
    "is_done": false
  },
  {
    "cod. oficina": 7323,
    "zinc 1  -7119": "jerez de la frontera, pz. del caballo (es cmdte. paz varela), 0",
    "direccion": "pz del caballo (es cmdte. paz varela), ",
    "plaza": "jerez de la frontera",
    "cp": "11405",
    "tipo": "universal",
    "territorial": "andalucia",
    "tecnico": "miguel herrera",
    "fase": "fase i",
    "google_maps_address": "pz del caballo (es cmdte. paz varela), , 11405, jerez de la frontera, andalucia, Spain",
    "lat": 36.69361,
    "lng": -6.12931,
    "is_done": false
  },
  {
    "cod. oficina": 7200,
    "zinc 1  -7119": "la algaba, hoyo barrero, 1",
    "direccion": "cl hoyo barrero, 1 (esq calle peligro)",
    "plaza": "la algaba",
    "cp": "41980",
    "tipo": "universal",
    "territorial": "andalucia",
    "tecnico": "miguel herrera",
    "fase": "fase i",
    "google_maps_address": "cl hoyo barrero, 1 (esq calle peligro), 41980, la algaba, andalucia, Spain",
    "lat": 37.46124,
    "lng": -6.01008,
    "is_done": false
  },
  {
    "cod. oficina": 7248,
    "zinc 1  -7119": "la cañada, pz. de antonio torres, 11",
    "direccion": "pz de antonio torres, 11",
    "plaza": "la cañada",
    "cp": "04120",
    "tipo": "universal",
    "territorial": "andalucia",
    "tecnico": "naira martinez",
    "fase": "fase i",
    "google_maps_address": "pz de antonio torres, 11, 04120, la cañada, andalucia, Spain",
    "lat": 36.8407,
    "lng": -2.40835,
    "is_done": false
  },
  {
    "cod. oficina": 506,
    "zinc 1  -7119": "la carolina",
    "direccion": "pz del ayuntamiento, 2",
    "plaza": "la carolina",
    "cp": "23200",
    "tipo": "universal",
    "territorial": "andalucia",
    "tecnico": "naira martinez",
    "fase": "fase i",
    "google_maps_address": "pz del ayuntamiento, 2, 23200, la carolina, andalucia, Spain",
    "lat": 38.27453,
    "lng": -3.61553,
    "is_done": false
  },
  {
    "cod. oficina": 58,
    "zinc 1  -7119": "la palma del condado",
    "direccion": "pz de españa, 9",
    "plaza": "la palma del condado",
    "cp": "21700",
    "tipo": "universal",
    "territorial": "andalucia",
    "tecnico": "miguel herrera",
    "fase": "fase i",
    "google_maps_address": "pz de españa, 9, 21700, la palma del condado, andalucia, Spain",
    "lat": 37.3871,
    "lng": -6.55365,
    "is_done": false
  },
  {
    "cod. oficina": 7279,
    "zinc 1  -7119": "la puebla de cazalla, pz. del cabildo, 3",
    "direccion": "pz del cabildo, 3",
    "plaza": "la puebla de cazalla",
    "cp": "41540",
    "tipo": "universal",
    "territorial": "andalucia",
    "tecnico": "miguel herrera",
    "fase": "fase i",
    "google_maps_address": "pz del cabildo, 3, 41540, la puebla de cazalla, andalucia, Spain",
    "lat": 37.22237,
    "lng": -5.31417,
    "is_done": false
  },
  {
    "cod. oficina": 7107,
    "zinc 1  -7119": "la zubia, pz. blas leoncio piñar, 0",
    "direccion": "pz blas leoncio piñar, ",
    "plaza": "la zubia",
    "cp": "18140",
    "tipo": "universal",
    "territorial": "andalucia",
    "tecnico": "naira martinez",
    "fase": "fase i",
    "google_maps_address": "pz blas leoncio piñar, , 18140, la zubia, andalucia, Spain",
    "lat": 37.11958,
    "lng": -3.57797,
    "is_done": false
  },
  {
    "cod. oficina": 395,
    "zinc 1  -7119": "lepe",
    "direccion": "cl real, 16",
    "plaza": "lepe",
    "cp": "21440",
    "tipo": "universal",
    "territorial": "andalucia",
    "tecnico": "miguel herrera",
    "fase": "fase i",
    "google_maps_address": "cl real, 16, 21440, lepe, andalucia, Spain",
    "lat": 37.25508,
    "lng": -7.20322,
    "is_done": false
  },
  {
    "cod. oficina": 109,
    "zinc 1  -7119": "lora del rio",
    "direccion": "cl jose montoto y gonzalez hoyuela, 36",
    "plaza": "lora del rio",
    "cp": "41440",
    "tipo": "universal",
    "territorial": "andalucia",
    "tecnico": "miguel herrera",
    "fase": "fase i",
    "google_maps_address": "cl jose montoto y gonzalez hoyuela, 36, 41440, lora del rio, andalucia, Spain",
    "lat": 37.65653,
    "lng": -5.52935,
    "is_done": false
  },
  {
    "cod. oficina": 7202,
    "zinc 1  -7119": "los palacios y villafranca",
    "direccion": "pz de españa, 34",
    "plaza": "los palacios y villafranca",
    "cp": "41720",
    "tipo": "universal",
    "territorial": "andalucia",
    "tecnico": "miguel herrera",
    "fase": "fase i",
    "google_maps_address": "pz de españa, 34, 41720, los palacios y villafranca, andalucia, Spain",
    "lat": 37.15952,
    "lng": -5.92848,
    "is_done": false
  },
  {
    "cod. oficina": 1618,
    "zinc 1  -7119": "macael",
    "direccion": "cl garcia lorca, 29",
    "plaza": "macael",
    "cp": "04867",
    "tipo": "universal",
    "territorial": "andalucia",
    "tecnico": "naira martinez",
    "fase": "fase i",
    "google_maps_address": "cl garcia lorca, 29, 04867, macael, andalucia, Spain",
    "lat": 37.33358,
    "lng": -2.30373,
    "is_done": false
  },
  {
    "cod. oficina": 1294,
    "zinc 1  -7119": "mairena del alcor",
    "direccion": "cl cervantes, 56",
    "plaza": "mairena del alcor",
    "cp": "41510",
    "tipo": "universal",
    "territorial": "andalucia",
    "tecnico": "miguel herrera",
    "fase": "fase i",
    "google_maps_address": "cl cervantes, 56, 41510, mairena del alcor, andalucia, Spain",
    "lat": 37.37219,
    "lng": -5.75657,
    "is_done": false
  },
  {
    "cod. oficina": 1740,
    "zinc 1  -7119": "malaga, l. pasteur,9 - teatinos",
    "direccion": "cl boulevar louis pasteur, 9 (local 3 -teatinos)",
    "plaza": "malaga",
    "cp": "29010",
    "tipo": "universal",
    "territorial": "andalucia",
    "tecnico": "naira martinez",
    "fase": "fase i",
    "google_maps_address": "cl boulevar louis pasteur, 9 (local 3 -teatinos), 29010, malaga, andalucia, Spain",
    "lat": 36.71766,
    "lng": -4.46248,
    "is_done": false
  },
  {
    "cod. oficina": 2743,
    "zinc 1  -7119": "malaga, cuarteles,35",
    "direccion": "cl cuarteles, 35",
    "plaza": "malaga",
    "cp": "29002",
    "tipo": "universal",
    "territorial": "andalucia",
    "tecnico": "naira martinez",
    "fase": "fase i",
    "google_maps_address": "cl cuarteles, 35, 29002, malaga, andalucia, Spain",
    "lat": 36.71327,
    "lng": -4.42828,
    "is_done": false
  },
  {
    "cod. oficina": 4345,
    "zinc 1  -7119": "malaga, pacifico, 38",
    "direccion": "cl pacifico, 38 (c/v carril de la chupa)",
    "plaza": "malaga",
    "cp": "29004",
    "tipo": "universal",
    "territorial": "andalucia",
    "tecnico": "naira martinez",
    "fase": "fase i",
    "google_maps_address": "cl pacifico, 38 (c/v carril de la chupa), 29004, malaga, andalucia, Spain",
    "lat": 36.69375,
    "lng": -4.44105,
    "is_done": false
  },
  {
    "cod. oficina": 4434,
    "zinc 1  -7119": "malaga juan sebastian elcano 32",
    "direccion": "cl juan sebastian elcano, 32",
    "plaza": "malaga",
    "cp": "29017",
    "tipo": "universal",
    "territorial": "andalucia",
    "tecnico": "naira martinez",
    "fase": "fase i",
    "google_maps_address": "cl juan sebastian elcano, 32, 29017, malaga, andalucia, Spain",
    "lat": 36.72211,
    "lng": -4.37782,
    "is_done": false
  },
  {
    "cod. oficina": 4988,
    "zinc 1  -7119": "malaga, av. de velazquez,49",
    "direccion": "av de velazquez, 49",
    "plaza": "malaga",
    "cp": "29003",
    "tipo": "universal",
    "territorial": "andalucia",
    "tecnico": "naira martinez",
    "fase": "fase i",
    "google_maps_address": "av de velazquez, 49, 29003, malaga, andalucia, Spain",
    "lat": 36.69693,
    "lng": -4.44901,
    "is_done": false
  },
  {
    "cod. oficina": 5203,
    "zinc 1  -7119": "malaga, pl. cruz humilladero,5",
    "direccion": "pz cruz de humilladero, 5",
    "plaza": "malaga",
    "cp": "29006",
    "tipo": "universal",
    "territorial": "andalucia",
    "tecnico": "naira martinez",
    "fase": "fase i",
    "google_maps_address": "pz cruz de humilladero, 5, 29006, malaga, andalucia, Spain",
    "lat": 36.70387,
    "lng": -4.46453,
    "is_done": false
  },
  {
    "cod. oficina": 6007,
    "zinc 1  -7119": "malaga, victoria,85-87",
    "direccion": "cl victoria, 85",
    "plaza": "malaga",
    "cp": "29012",
    "tipo": "universal",
    "territorial": "andalucia",
    "tecnico": "naira martinez",
    "fase": "fase i",
    "google_maps_address": "cl victoria, 85, 29012, malaga, andalucia, Spain",
    "lat": 36.72632,
    "lng": -4.41436,
    "is_done": false
  },
  {
    "cod. oficina": 1441,
    "zinc 1  -7119": "malaga , lope de rueda  108",
    "direccion": "cl lope de rueda, 108",
    "plaza": "malaga",
    "cp": "29190",
    "tipo": "universal",
    "territorial": "andalucia",
    "tecnico": "naira martinez",
    "fase": "fase i",
    "google_maps_address": "cl lope de rueda, 108, 29190, malaga, andalucia, Spain",
    "lat": 36.73848,
    "lng": -4.48059,
    "is_done": false
  },
  {
    "cod. oficina": 7311,
    "zinc 1  -7119": "mancha real, maestra, 101",
    "direccion": "cl maestra, 101",
    "plaza": "mancha real",
    "cp": "23100",
    "tipo": "universal",
    "territorial": "andalucia",
    "tecnico": "naira martinez",
    "fase": "fase i",
    "google_maps_address": "cl maestra, 101, 23100, mancha real, andalucia, Spain",
    "lat": 37.78636,
    "lng": -3.61026,
    "is_done": false
  },
  {
    "cod. oficina": 7310,
    "zinc 1  -7119": "manilva, cr. cadizmalaga c r s luis (sabinillas), 0",
    "direccion": "cr cadizmalaga c r s luis (sabinillas), ",
    "plaza": "manilva",
    "cp": "29692",
    "tipo": "universal",
    "territorial": "andalucia",
    "tecnico": "naira martinez",
    "fase": "fase i",
    "google_maps_address": "cr cadizmalaga c r s luis (sabinillas), , 29692, manilva, andalucia, Spain",
    "lat": 36.36631,
    "lng": -5.22732,
    "is_done": false
  },
  {
    "cod. oficina": 1651,
    "zinc 1  -7119": "maracena, real, 23",
    "direccion": "cl real, 23",
    "plaza": "maracena",
    "cp": "18200",
    "tipo": "universal",
    "territorial": "andalucia",
    "tecnico": "naira martinez",
    "fase": "fase i",
    "google_maps_address": "cl real, 23, 18200, maracena, andalucia, Spain",
    "lat": 37.20643,
    "lng": -3.63388,
    "is_done": false
  },
  {
    "cod. oficina": 7240,
    "zinc 1  -7119": "workcafe marbella",
    "direccion": "av ricardo soriano, 23",
    "plaza": "marbella",
    "cp": "29600",
    "tipo": "universal",
    "territorial": "andalucia",
    "tecnico": "naira martinez",
    "fase": "fase i",
    "google_maps_address": "av ricardo soriano, 23, 29600, marbella, andalucia, Spain",
    "lat": 36.51021,
    "lng": -4.88981,
    "is_done": false
  },
  {
    "cod. oficina": 7119,
    "zinc 1  -7119": "marbella, zinc,1",
    "direccion": "cl zinc, 1",
    "plaza": "marbella",
    "cp": "29603",
    "tipo": "universal",
    "territorial": "andalucia",
    "tecnico": "naira martinez",
    "fase": "fase i",
    "google_maps_address": "cl zinc, 1, 29603, marbella, andalucia, Spain",
    "lat": 36.50961,
    "lng": -4.87127,
    "is_done": false
  },
  {
    "cod. oficina": 620,
    "zinc 1  -7119": "marchena",
    "direccion": "cl san sebastian, 12",
    "plaza": "marchena",
    "cp": "41620",
    "tipo": "universal",
    "territorial": "andalucia",
    "tecnico": "miguel herrera",
    "fase": "fase i",
    "google_maps_address": "cl san sebastian, 12, 41620, marchena, andalucia, Spain",
    "lat": 37.3282,
    "lng": -5.41494,
    "is_done": false
  },
  {
    "cod. oficina": 7382,
    "zinc 1  -7119": "martos, carrera, 40",
    "direccion": "cl carrera, 40",
    "plaza": "martos",
    "cp": "23600",
    "tipo": "universal",
    "territorial": "andalucia",
    "tecnico": "naira martinez",
    "fase": "fase i",
    "google_maps_address": "cl carrera, 40, 23600, martos, andalucia, Spain",
    "lat": 37.72095,
    "lng": -3.96986,
    "is_done": false
  },
  {
    "cod. oficina": 317,
    "zinc 1  -7119": "mengibar",
    "direccion": "cl queipo de llano, 9",
    "plaza": "mengibar",
    "cp": "23620",
    "tipo": "universal",
    "territorial": "andalucia",
    "tecnico": "naira martinez",
    "fase": "fase i",
    "google_maps_address": "cl queipo de llano, 9, 23620, mengibar, andalucia, Spain",
    "lat": 37.95289,
    "lng": -3.59732,
    "is_done": false
  },
  {
    "cod. oficina": 7315,
    "zinc 1  -7119": "mijas, la union  (las lagunas), 19",
    "direccion": "cl la union  (las lagunas), 19",
    "plaza": "mijas",
    "cp": "29651",
    "tipo": "universal",
    "territorial": "andalucia",
    "tecnico": "naira martinez",
    "fase": "fase i",
    "google_maps_address": "cl la union  (las lagunas), 19, 29651, mijas, andalucia, Spain",
    "lat": 36.54209,
    "lng": -4.63059,
    "is_done": false
  },
  {
    "cod. oficina": 7230,
    "zinc 1  -7119": "moguer, andalucia, 28",
    "direccion": "cl andalucia, 28",
    "plaza": "moguer",
    "cp": "21800",
    "tipo": "universal",
    "territorial": "andalucia",
    "tecnico": "miguel herrera",
    "fase": "fase i",
    "google_maps_address": "cl andalucia, 28, 21800, moguer, andalucia, Spain",
    "lat": 37.27546,
    "lng": -6.84048,
    "is_done": false
  },
  {
    "cod. oficina": 1126,
    "zinc 1  -7119": "mojacar , andalucia  s/n",
    "direccion": "av andalucia, s/n",
    "plaza": "mojacar",
    "cp": "04638",
    "tipo": "universal",
    "territorial": "andalucia",
    "tecnico": "naira martinez",
    "fase": "fase i",
    "google_maps_address": "av andalucia, s/n, 04638, mojacar, andalucia, Spain",
    "lat": 37.13973,
    "lng": -1.84894,
    "is_done": false
  },
  {
    "cod. oficina": 1485,
    "zinc 1  -7119": "montalban cordoba , ancha  76",
    "direccion": "cl ancha, 76",
    "plaza": "montalban cordoba",
    "cp": "14548",
    "tipo": "universal",
    "territorial": "andalucia",
    "tecnico": "miguel herrera",
    "fase": "fase i",
    "google_maps_address": "cl ancha, 76, 14548, montalban cordoba, andalucia, Spain",
    "lat": 37.5818,
    "lng": -4.75034,
    "is_done": false
  },
  {
    "cod. oficina": 7271,
    "zinc 1  -7119": "montilla, corredera, 25",
    "direccion": "cl corredera, 25",
    "plaza": "montilla",
    "cp": "14550",
    "tipo": "universal",
    "territorial": "andalucia",
    "tecnico": "miguel herrera",
    "fase": "fase i",
    "google_maps_address": "cl corredera, 25, 14550, montilla, andalucia, Spain",
    "lat": 37.58834,
    "lng": -4.63862,
    "is_done": false
  },
  {
    "cod. oficina": 1694,
    "zinc 1  -7119": "moron frontera , del ayuntamiento  3",
    "direccion": "pz del ayuntamiento, 3",
    "plaza": "moron de la frontera",
    "cp": "41530",
    "tipo": "universal",
    "territorial": "andalucia",
    "tecnico": "miguel herrera",
    "fase": "fase i",
    "google_maps_address": "pz del ayuntamiento, 3, 41530, moron de la frontera, andalucia, Spain",
    "lat": 37.12242,
    "lng": -5.45155,
    "is_done": false
  },
  {
    "cod. oficina": 7218,
    "zinc 1  -7119": "olvera, llana, 31",
    "direccion": "cl llana, 31",
    "plaza": "olvera",
    "cp": "11690",
    "tipo": "universal",
    "territorial": "andalucia",
    "tecnico": "miguel herrera",
    "fase": "fase i",
    "google_maps_address": "cl llana, 31, 11690, olvera, andalucia, Spain",
    "lat": 36.93482,
    "lng": -5.26558,
    "is_done": false
  },
  {
    "cod. oficina": 141,
    "zinc 1  -7119": "palma del rio",
    "direccion": "cl ancha, 2 (y castillejo, 1)",
    "plaza": "palma del rio",
    "cp": "14700",
    "tipo": "universal",
    "territorial": "andalucia",
    "tecnico": "miguel herrera",
    "fase": "fase i",
    "google_maps_address": "cl ancha, 2 (y castillejo, 1), 14700, palma del rio, andalucia, Spain",
    "lat": 37.69792,
    "lng": -5.28211,
    "is_done": false
  },
  {
    "cod. oficina": 1330,
    "zinc 1  -7119": "palos de la frontera",
    "direccion": "cl rabida, 71",
    "plaza": "palos de la frontera",
    "cp": "21810",
    "tipo": "universal",
    "territorial": "andalucia",
    "tecnico": "miguel herrera",
    "fase": "fase i",
    "google_maps_address": "cl rabida, 71, 21810, palos de la frontera, andalucia, Spain",
    "lat": 37.22745,
    "lng": -6.8949,
    "is_done": false
  },
  {
    "cod. oficina": 1318,
    "zinc 1  -7119": "peligros , pintor velazquez  1",
    "direccion": "cl pintor velazquez, 1",
    "plaza": "peligros",
    "cp": "18210",
    "tipo": "universal",
    "territorial": "andalucia",
    "tecnico": "naira martinez",
    "fase": "fase i",
    "google_maps_address": "cl pintor velazquez, 1, 18210, peligros, andalucia, Spain",
    "lat": 37.23108,
    "lng": -3.62873,
    "is_done": false
  },
  {
    "cod. oficina": 7372,
    "zinc 1  -7119": "pilas, apostol santiago, 14",
    "direccion": "cl apostol santiago, 14",
    "plaza": "pilas",
    "cp": "41840",
    "tipo": "universal",
    "territorial": "andalucia",
    "tecnico": "miguel herrera",
    "fase": "fase i",
    "google_maps_address": "cl apostol santiago, 14, 41840, pilas, andalucia, Spain",
    "lat": 37.30278,
    "lng": -6.30201,
    "is_done": false
  },
  {
    "cod. oficina": 3392,
    "zinc 1  -7119": "porcuna , ramon y cajal  7",
    "direccion": "cl ramon y cajal, 7",
    "plaza": "porcuna",
    "cp": "23790",
    "tipo": "universal",
    "territorial": "andalucia",
    "tecnico": "naira martinez",
    "fase": "fase i",
    "google_maps_address": "cl ramon y cajal, 7, 23790, porcuna, andalucia, Spain",
    "lat": 37.87002,
    "lng": -4.18341,
    "is_done": false
  },
  {
    "cod. oficina": 97,
    "zinc 1  -7119": "pozoblanco",
    "direccion": "cl real, 14",
    "plaza": "pozoblanco",
    "cp": "14400",
    "tipo": "universal",
    "territorial": "andalucia",
    "tecnico": "miguel herrera",
    "fase": "fase i",
    "google_maps_address": "cl real, 14, 14400, pozoblanco, andalucia, Spain",
    "lat": 38.3779,
    "lng": -4.84761,
    "is_done": false
  },
  {
    "cod. oficina": 2547,
    "zinc 1  -7119": "priego de cordoba",
    "direccion": "pz de andalucia, 1",
    "plaza": "priego de cordoba",
    "cp": "14800",
    "tipo": "universal",
    "territorial": "andalucia",
    "tecnico": "miguel herrera",
    "fase": "fase i",
    "google_maps_address": "pz de andalucia, 1, 14800, priego de cordoba, andalucia, Spain",
    "lat": 37.43849,
    "lng": -4.19441,
    "is_done": false
  },
  {
    "cod. oficina": 505,
    "zinc 1  -7119": "puente genil, manuel reina,91",
    "direccion": "av manuel reina, 91",
    "plaza": "puente genil",
    "cp": "14500",
    "tipo": "universal",
    "territorial": "andalucia",
    "tecnico": "miguel herrera",
    "fase": "fase i",
    "google_maps_address": "av manuel reina, 91, 14500, puente genil, andalucia, Spain",
    "lat": 37.39286,
    "lng": -4.76483,
    "is_done": false
  },
  {
    "cod. oficina": 2972,
    "zinc 1  -7119": "pulpi , mercado  5",
    "direccion": "cl mercado, 5",
    "plaza": "pulpi",
    "cp": "04640",
    "tipo": "universal",
    "territorial": "andalucia",
    "tecnico": "naira martinez",
    "fase": "fase i",
    "google_maps_address": "cl mercado, 5, 04640, pulpi, andalucia, Spain",
    "lat": 37.41164,
    "lng": -1.745,
    "is_done": false
  },
  {
    "cod. oficina": 1426,
    "zinc 1  -7119": "rincon victoria , mediterraneo  s/n",
    "direccion": "av mediterraneo, s/n",
    "plaza": "rincon de la victoria",
    "cp": "29730",
    "tipo": "universal",
    "territorial": "andalucia",
    "tecnico": "naira martinez",
    "fase": "fase i",
    "google_maps_address": "av mediterraneo, s/n, 29730, rincon de la victoria, andalucia, Spain",
    "lat": 36.71477,
    "lng": -4.28197,
    "is_done": false
  },
  {
    "cod. oficina": 2556,
    "zinc 1  -7119": "ronda, carrera de espinel, 36",
    "direccion": "cl carrera de espinel, 36",
    "plaza": "ronda",
    "cp": "29400",
    "tipo": "universal",
    "territorial": "andalucia",
    "tecnico": "naira martinez",
    "fase": "fase i",
    "google_maps_address": "cl carrera de espinel, 36, 29400, ronda, andalucia, Spain",
    "lat": 36.74291,
    "lng": -5.1648,
    "is_done": false
  },
  {
    "cod. oficina": 3711,
    "zinc 1  -7119": "roquetas de mar, ps. de los baños, 4",
    "direccion": "ps de los baños, 4 (esq calle diana)",
    "plaza": "roquetas de mar",
    "cp": "04740",
    "tipo": "universal",
    "territorial": "andalucia",
    "tecnico": "naira martinez",
    "fase": "fase i",
    "google_maps_address": "ps de los baños, 4 (esq calle diana), 04740, roquetas de mar, andalucia, Spain",
    "lat": 36.76372,
    "lng": -2.61175,
    "is_done": false
  },
  {
    "cod. oficina": 4404,
    "zinc 1  -7119": "rota, av. de la libertad, 1",
    "direccion": "av de la libertad, 1",
    "plaza": "rota",
    "cp": "11520",
    "tipo": "universal",
    "territorial": "andalucia",
    "tecnico": "miguel herrera",
    "fase": "fase i",
    "google_maps_address": "av de la libertad, 1, 11520, rota, andalucia, Spain",
    "lat": 36.62741,
    "lng": -6.36525,
    "is_done": false
  },
  {
    "cod. oficina": 1946,
    "zinc 1  -7119": "salobreña",
    "direccion": "av federico garcia lorca, 20",
    "plaza": "salobreña",
    "cp": "18680",
    "tipo": "universal",
    "territorial": "andalucia",
    "tecnico": "naira martinez",
    "fase": "fase i",
    "google_maps_address": "av federico garcia lorca, 20, 18680, salobreña, andalucia, Spain",
    "lat": 36.74117,
    "lng": -3.586,
    "is_done": false
  },
  {
    "cod. oficina": 4189,
    "zinc 1  -7119": "sanlucar barrameda , hermano fermin  11",
    "direccion": "cl hermano fermin, 11",
    "plaza": "sanlucar de barrameda",
    "cp": "11540",
    "tipo": "universal",
    "territorial": "andalucia",
    "tecnico": "miguel herrera",
    "fase": "fase i",
    "google_maps_address": "cl hermano fermin, 11, 11540, sanlucar de barrameda, andalucia, Spain",
    "lat": 36.77987,
    "lng": -6.3572,
    "is_done": false
  },
  {
    "cod. oficina": 4537,
    "zinc 1  -7119": "sanlucar la mayor",
    "direccion": "cl real, 2",
    "plaza": "sanlucar la mayor",
    "cp": "41800",
    "tipo": "universal",
    "territorial": "andalucia",
    "tecnico": "miguel herrera",
    "fase": "fase i",
    "google_maps_address": "cl real, 2, 41800, sanlucar la mayor, andalucia, Spain",
    "lat": 37.38589,
    "lng": -6.20142,
    "is_done": false
  },
  {
    "cod. oficina": 291,
    "zinc 1  -7119": "santa fe",
    "direccion": "av de la hispanidad, 6",
    "plaza": "santa fe",
    "cp": "18320",
    "tipo": "universal",
    "territorial": "andalucia",
    "tecnico": "naira martinez",
    "fase": "fase i",
    "google_maps_address": "av de la hispanidad, 6, 18320, santa fe, andalucia, Spain",
    "lat": 37.19014,
    "lng": -3.71604,
    "is_done": false
  },
  {
    "cod. oficina": 180,
    "zinc 1  -7119": "sevilla, feria,63-65",
    "direccion": "cl feria, 63",
    "plaza": "sevilla",
    "cp": "41002",
    "tipo": "universal",
    "territorial": "andalucia",
    "tecnico": "miguel herrera",
    "fase": "fase i",
    "google_maps_address": "cl feria, 63, 41002, sevilla, andalucia, Spain",
    "lat": 37.39849,
    "lng": -5.99173,
    "is_done": false
  },
  {
    "cod. oficina": 1173,
    "zinc 1  -7119": "sevilla, ramon y cajal,13",
    "direccion": "cl ramon y cajal, 13",
    "plaza": "sevilla",
    "cp": "41005",
    "tipo": "universal",
    "territorial": "andalucia",
    "tecnico": "miguel herrera",
    "fase": "fase i",
    "google_maps_address": "cl ramon y cajal, 13, 41005, sevilla, andalucia, Spain",
    "lat": 37.37627,
    "lng": -5.97146,
    "is_done": false
  },
  {
    "cod. oficina": 1341,
    "zinc 1  -7119": "sevilla, bami,2",
    "direccion": "cl bami, 2",
    "plaza": "sevilla",
    "cp": "41013",
    "tipo": "universal",
    "territorial": "andalucia",
    "tecnico": "miguel herrera",
    "fase": "fase i",
    "google_maps_address": "cl bami, 2, 41013, sevilla, andalucia, Spain",
    "lat": 37.36089,
    "lng": -5.97945,
    "is_done": false
  },
  {
    "cod. oficina": 5428,
    "zinc 1  -7119": "sevilla, gran plaza,12",
    "direccion": "cl gran plaza, 12 (nervion)",
    "plaza": "sevilla",
    "cp": "41005",
    "tipo": "universal",
    "territorial": "andalucia",
    "tecnico": "miguel herrera",
    "fase": "fase i",
    "google_maps_address": "cl gran plaza, 12 (nervion), 41005, sevilla, andalucia, Spain",
    "lat": 37.38189,
    "lng": -5.96519,
    "is_done": false
  },
  {
    "cod. oficina": 5854,
    "zinc 1  -7119": "sevilla, av. felipe ii,5",
    "direccion": "av felipe ii, 5",
    "plaza": "sevilla",
    "cp": "41013",
    "tipo": "universal",
    "territorial": "andalucia",
    "tecnico": "miguel herrera",
    "fase": "fase i",
    "google_maps_address": "av felipe ii, 5, 41013, sevilla, andalucia, Spain",
    "lat": 37.37215,
    "lng": -5.98427,
    "is_done": false
  },
  {
    "cod. oficina": 5937,
    "zinc 1  -7119": "sevilla, av. del deporte",
    "direccion": "av del deporte (edif. malaga bloque,1), s-n (edif. malaga 1 bajo)",
    "plaza": "sevilla",
    "cp": "41020",
    "tipo": "universal",
    "territorial": "andalucia",
    "tecnico": "miguel herrera",
    "fase": "fase i",
    "google_maps_address": "av del deporte (edif. malaga bloque,1), s-n (edif. malaga 1 bajo), 41020, sevilla, andalucia, Spain",
    "lat": 37.39482,
    "lng": -5.91572,
    "is_done": false
  },
  {
    "cod. oficina": 6175,
    "zinc 1  -7119": "sevilla, san jacinto,80-88",
    "direccion": "cl san jacinto, 80",
    "plaza": "sevilla",
    "cp": "41010",
    "tipo": "universal",
    "territorial": "andalucia",
    "tecnico": "miguel herrera",
    "fase": "fase i",
    "google_maps_address": "cl san jacinto, 80, 41010, sevilla, andalucia, Spain",
    "lat": 37.38226,
    "lng": -6.00768,
    "is_done": false
  },
  {
    "cod. oficina": 7296,
    "zinc 1  -7119": "sevilla, reyes catolicos, 10",
    "direccion": "cl reyes catolicos, 10",
    "plaza": "sevilla",
    "cp": "41001",
    "tipo": "universal",
    "territorial": "andalucia",
    "tecnico": "miguel herrera",
    "fase": "fase i",
    "google_maps_address": "cl reyes catolicos, 10, 41001, sevilla, andalucia, Spain",
    "lat": 37.3886,
    "lng": -6.00048,
    "is_done": false
  },
  {
    "cod. oficina": 7191,
    "zinc 1  -7119": "sevilla, pz. de san agustin, 16",
    "direccion": "pz de san agustin, 16",
    "plaza": "sevilla",
    "cp": "41003",
    "tipo": "universal",
    "territorial": "andalucia",
    "tecnico": "miguel herrera",
    "fase": "fase i",
    "google_maps_address": "pz de san agustin, 16, 41003, sevilla, andalucia, Spain",
    "lat": 37.38923,
    "lng": -5.98427,
    "is_done": false
  },
  {
    "cod. oficina": 7189,
    "zinc 1  -7119": "sevilla, astronomia, 1",
    "direccion": "cl astronomia, 1 (torre 1)",
    "plaza": "sevilla",
    "cp": "41015",
    "tipo": "universal",
    "territorial": "andalucia",
    "tecnico": "miguel herrera",
    "fase": "fase i",
    "google_maps_address": "cl astronomia, 1 (torre 1), 41015, sevilla, andalucia, Spain",
    "lat": 37.42551,
    "lng": -5.97422,
    "is_done": false
  },
  {
    "cod. oficina": 4299,
    "zinc 1  -7119": "sevilla mapfre",
    "direccion": "cl menendez pelayo, 7-9",
    "plaza": "sevilla",
    "cp": "41003",
    "tipo": "universal",
    "territorial": "andalucia",
    "tecnico": "miguel herrera",
    "fase": "fase i",
    "google_maps_address": "cl menendez pelayo, 7-9, 41003, sevilla, andalucia, Spain",
    "lat": 37.38617,
    "lng": -5.98605,
    "is_done": false
  },
  {
    "cod. oficina": 672,
    "zinc 1  -7119": "sotogrande",
    "direccion": "cl puerto deportivo, s/n (bloque e - local 2)",
    "plaza": "sotogrande",
    "cp": "11310",
    "tipo": "universal",
    "territorial": "andalucia",
    "tecnico": "miguel herrera",
    "fase": "fase i",
    "google_maps_address": "cl puerto deportivo, s/n (bloque e - local 2), 11310, sotogrande, andalucia, Spain",
    "lat": 36.27785,
    "lng": -5.29307,
    "is_done": false
  },
  {
    "cod. oficina": 448,
    "zinc 1  -7119": "tarifa",
    "direccion": "cl batalla del salado, 17",
    "plaza": "tarifa",
    "cp": "11380",
    "tipo": "universal",
    "territorial": "andalucia",
    "tecnico": "miguel herrera",
    "fase": "fase i",
    "google_maps_address": "cl batalla del salado, 17, 11380, tarifa, andalucia, Spain",
    "lat": 36.01498,
    "lng": -5.60545,
    "is_done": false
  },
  {
    "cod. oficina": 4541,
    "zinc 1  -7119": "torre del campo",
    "direccion": "av de la constitucion, s-n",
    "plaza": "torre del campo",
    "cp": "23640",
    "tipo": "universal",
    "territorial": "andalucia",
    "tecnico": "naira martinez",
    "fase": "fase i",
    "google_maps_address": "av de la constitucion, s-n, 23640, torre del campo, andalucia, Spain",
    "lat": 37.77101,
    "lng": -3.89747,
    "is_done": false
  },
  {
    "cod. oficina": 1373,
    "zinc 1  -7119": "torredonjimeno , llanete de las arrabalas  3",
    "direccion": "pz llanete de las arrabalas, 3",
    "plaza": "torredonjimeno",
    "cp": "23650",
    "tipo": "universal",
    "territorial": "andalucia",
    "tecnico": "naira martinez",
    "fase": "fase i",
    "google_maps_address": "pz llanete de las arrabalas, 3, 23650, torredonjimeno, andalucia, Spain",
    "lat": 37.76614,
    "lng": -3.9563,
    "is_done": false
  },
  {
    "cod. oficina": 7220,
    "zinc 1  -7119": "ubrique, ingeniero ruiz martinez, 30",
    "direccion": "cl ingeniero ruiz martinez, 30",
    "plaza": "ubrique",
    "cp": "11600",
    "tipo": "universal",
    "territorial": "andalucia",
    "tecnico": "miguel herrera",
    "fase": "fase i",
    "google_maps_address": "cl ingeniero ruiz martinez, 30, 11600, ubrique, andalucia, Spain",
    "lat": 36.67704,
    "lng": -5.44436,
    "is_done": false
  },
  {
    "cod. oficina": 107,
    "zinc 1  -7119": "valverde del camino",
    "direccion": "cl real de arriba, 30",
    "plaza": "valverde del camino",
    "cp": "21600",
    "tipo": "universal",
    "territorial": "andalucia",
    "tecnico": "miguel herrera",
    "fase": "fase i",
    "google_maps_address": "cl real de arriba, 30, 21600, valverde del camino, andalucia, Spain",
    "lat": 37.57357,
    "lng": -6.75356,
    "is_done": false
  },
  {
    "cod. oficina": 6089,
    "zinc 1  -7119": "vera",
    "direccion": "cl del mar esq. c/de la plata, s-n",
    "plaza": "vera",
    "cp": "04620",
    "tipo": "universal",
    "territorial": "andalucia",
    "tecnico": "naira martinez",
    "fase": "fase i",
    "google_maps_address": "cl del mar esq. c/de la plata, s-n, 04620, vera, andalucia, Spain",
    "lat": 37.24773,
    "lng": -1.86696,
    "is_done": false
  },
  {
    "cod. oficina": 7285,
    "zinc 1  -7119": "villacarrillo, la feria, 36",
    "direccion": "cl la feria, 36",
    "plaza": "villacarrillo",
    "cp": "23300",
    "tipo": "universal",
    "territorial": "andalucia",
    "tecnico": "naira martinez",
    "fase": "fase i",
    "google_maps_address": "cl la feria, 36, 23300, villacarrillo, andalucia, Spain",
    "lat": 38.11557,
    "lng": -3.08446,
    "is_done": false
  },
  {
    "cod. oficina": 4856,
    "zinc 1  -7119": "alfaro",
    "direccion": "pj toril, 1",
    "plaza": "alfaro",
    "cp": "26540",
    "tipo": "universal",
    "territorial": "aragon-navarra-la rioja",
    "tecnico": "isabel corrales",
    "fase": "fase i",
    "google_maps_address": "pj toril, 1, 26540, alfaro, aragon-navarra-la rioja, Spain",
    "lat": 42.17798,
    "lng": -1.74953,
    "is_done": false
  },
  {
    "cod. oficina": 744,
    "zinc 1  -7119": "altsasu-alsasua",
    "direccion": "cl alzania, 1 a",
    "plaza": "alsasua",
    "cp": "31800",
    "tipo": "universal",
    "territorial": "aragon-navarra-la rioja",
    "tecnico": "isabel corrales",
    "fase": "fase i",
    "google_maps_address": "cl alzania, 1 a, 31800, alsasua, aragon-navarra-la rioja, Spain",
    "lat": 42.89554,
    "lng": -2.17175,
    "is_done": false
  },
  {
    "cod. oficina": 2717,
    "zinc 1  -7119": "andorra",
    "direccion": "av de san jorge, 88",
    "plaza": "andorra",
    "cp": "44500",
    "tipo": "universal",
    "territorial": "aragon-navarra-la rioja",
    "tecnico": "isabel corrales",
    "fase": "fase i",
    "google_maps_address": "av de san jorge, 88, 44500, andorra, aragon-navarra-la rioja, Spain",
    "lat": 40.97742,
    "lng": -0.44851,
    "is_done": false
  },
  {
    "cod. oficina": 4623,
    "zinc 1  -7119": "arnedo",
    "direccion": "ps constitucion, 54",
    "plaza": "arnedo",
    "cp": "26580",
    "tipo": "universal",
    "territorial": "aragon-navarra-la rioja",
    "tecnico": "isabel corrales",
    "fase": "fase i",
    "google_maps_address": "ps constitucion, 54, 26580, arnedo, aragon-navarra-la rioja, Spain",
    "lat": 42.2267,
    "lng": -2.10123,
    "is_done": false
  },
  {
    "cod. oficina": 5347,
    "zinc 1  -7119": "berriozar , de guipuzcoa  24",
    "direccion": "av de guipuzcoa, 24",
    "plaza": "berriozar",
    "cp": "31013",
    "tipo": "universal",
    "territorial": "aragon-navarra-la rioja",
    "tecnico": "isabel corrales",
    "fase": "fase i",
    "google_maps_address": "av de guipuzcoa, 24, 31013, berriozar, aragon-navarra-la rioja, Spain",
    "lat": 42.82708,
    "lng": -1.65963,
    "is_done": false
  },
  {
    "cod. oficina": 2530,
    "zinc 1  -7119": "binefar, pz. de españa, 2",
    "direccion": "pz de españa, 2",
    "plaza": "binefar",
    "cp": "22500",
    "tipo": "universal",
    "territorial": "aragon-navarra-la rioja",
    "tecnico": "isabel corrales",
    "fase": "fase i",
    "google_maps_address": "pz de españa, 2, 22500, binefar, aragon-navarra-la rioja, Spain",
    "lat": 42.28707,
    "lng": -2.5396,
    "is_done": false
  },
  {
    "cod. oficina": 123,
    "zinc 1  -7119": "calamocha",
    "direccion": "pz bartolome esteban, 2",
    "plaza": "calamocha",
    "cp": "44200",
    "tipo": "universal",
    "territorial": "aragon-navarra-la rioja",
    "tecnico": "isabel corrales",
    "fase": "fase i",
    "google_maps_address": "pz bartolome esteban, 2, 44200, calamocha, aragon-navarra-la rioja, Spain",
    "lat": 40.92061,
    "lng": -1.29749,
    "is_done": false
  },
  {
    "cod. oficina": 7394,
    "zinc 1  -7119": "corella, tajadas, 28",
    "direccion": "cl tajadas, 28",
    "plaza": "corella",
    "cp": "31591",
    "tipo": "universal",
    "territorial": "aragon-navarra-la rioja",
    "tecnico": "isabel corrales",
    "fase": "fase i",
    "google_maps_address": "cl tajadas, 28, 31591, corella, aragon-navarra-la rioja, Spain",
    "lat": 42.11576,
    "lng": -1.78595,
    "is_done": false
  },
  {
    "cod. oficina": 1603,
    "zinc 1  -7119": "cuarte de huerva",
    "direccion": "cl ramon y cajal, 42",
    "plaza": "cuarte de huerva",
    "cp": "50410",
    "tipo": "universal",
    "territorial": "aragon-navarra-la rioja",
    "tecnico": "isabel corrales",
    "fase": "fase i",
    "google_maps_address": "cl ramon y cajal, 42, 50410, cuarte de huerva, aragon-navarra-la rioja, Spain",
    "lat": 41.59269,
    "lng": -0.93031,
    "is_done": false
  },
  {
    "cod. oficina": 2831,
    "zinc 1  -7119": "elizondo",
    "direccion": "cl santiago, 14",
    "plaza": "elizondo",
    "cp": "31700",
    "tipo": "universal",
    "territorial": "aragon-navarra-la rioja",
    "tecnico": "isabel corrales",
    "fase": "fase i",
    "google_maps_address": "cl santiago, 14, 31700, elizondo, aragon-navarra-la rioja, Spain",
    "lat": 43.14619,
    "lng": -1.51704,
    "is_done": false
  },
  {
    "cod. oficina": 113,
    "zinc 1  -7119": "haro",
    "direccion": "cl italia, 8",
    "plaza": "haro",
    "cp": "26200",
    "tipo": "universal",
    "territorial": "aragon-navarra-la rioja",
    "tecnico": "isabel corrales",
    "fase": "fase i",
    "google_maps_address": "cl italia, 8, 26200, haro, aragon-navarra-la rioja, Spain",
    "lat": 42.57483,
    "lng": -2.85066,
    "is_done": false
  },
  {
    "cod. oficina": 2461,
    "zinc 1  -7119": "jaca",
    "direccion": "cl mayor, 1",
    "plaza": "jaca",
    "cp": "22700",
    "tipo": "universal",
    "territorial": "aragon-navarra-la rioja",
    "tecnico": "isabel corrales",
    "fase": "fase i",
    "google_maps_address": "cl mayor, 1, 22700, jaca, aragon-navarra-la rioja, Spain",
    "lat": 42.57005,
    "lng": -0.55123,
    "is_done": false
  },
  {
    "cod. oficina": 7125,
    "zinc 1  -7119": "la puebla de alfinden, eras altas, 30",
    "direccion": "cl eras altas, 30",
    "plaza": "la puebla de alfinden",
    "cp": "50171",
    "tipo": "universal",
    "territorial": "aragon-navarra-la rioja",
    "tecnico": "isabel corrales",
    "fase": "fase i",
    "google_maps_address": "cl eras altas, 30, 50171, la puebla de alfinden, aragon-navarra-la rioja, Spain",
    "lat": 41.63306,
    "lng": -0.7512,
    "is_done": false
  },
  {
    "cod. oficina": 1750,
    "zinc 1  -7119": "logroño,av.club deportivo, 74",
    "direccion": "av club deportivo, 74",
    "plaza": "logroño",
    "cp": "26007",
    "tipo": "universal",
    "territorial": "aragon-navarra-la rioja",
    "tecnico": "isabel corrales",
    "fase": "fase i",
    "google_maps_address": "av club deportivo, 74, 26007, logroño, aragon-navarra-la rioja, Spain",
    "lat": 42.45821,
    "lng": -2.46068,
    "is_done": false
  },
  {
    "cod. oficina": 206,
    "zinc 1  -7119": "najera",
    "direccion": "ps san julian, 8",
    "plaza": "najera",
    "cp": "26300",
    "tipo": "universal",
    "territorial": "aragon-navarra-la rioja",
    "tecnico": "isabel corrales",
    "fase": "fase i",
    "google_maps_address": "ps san julian, 8, 26300, najera, aragon-navarra-la rioja, Spain",
    "lat": 42.4146,
    "lng": -2.73142,
    "is_done": false
  },
  {
    "cod. oficina": 7417,
    "zinc 1  -7119": "pamplona, tr. bayona, 2",
    "direccion": "tr bayona, 2",
    "plaza": "pamplona",
    "cp": "31011",
    "tipo": "universal",
    "territorial": "aragon-navarra-la rioja",
    "tecnico": "isabel corrales",
    "fase": "fase i",
    "google_maps_address": "tr bayona, 2, 31011, pamplona, aragon-navarra-la rioja, Spain",
    "lat": 42.81408,
    "lng": -1.65857,
    "is_done": false
  },
  {
    "cod. oficina": 7445,
    "zinc 1  -7119": "pamplona, esquiroz, 22",
    "direccion": "cl esquiroz, 22",
    "plaza": "pamplona",
    "cp": "31007",
    "tipo": "universal",
    "territorial": "aragon-navarra-la rioja",
    "tecnico": "isabel corrales",
    "fase": "fase i",
    "google_maps_address": "cl esquiroz, 22, 31007, pamplona, aragon-navarra-la rioja, Spain",
    "lat": 42.80508,
    "lng": -1.65102,
    "is_done": false
  },
  {
    "cod. oficina": 2859,
    "zinc 1  -7119": "peralta",
    "direccion": "cl irurzun, 26",
    "plaza": "peralta",
    "cp": "31350",
    "tipo": "universal",
    "territorial": "aragon-navarra-la rioja",
    "tecnico": "isabel corrales",
    "fase": "fase i",
    "google_maps_address": "cl irurzun, 26, 31350, peralta, aragon-navarra-la rioja, Spain",
    "lat": 42.33832,
    "lng": -1.79718,
    "is_done": false
  },
  {
    "cod. oficina": 2845,
    "zinc 1  -7119": "sabiñanigo",
    "direccion": "cl serrablo, 94",
    "plaza": "sabiñanigo",
    "cp": "22600",
    "tipo": "universal",
    "territorial": "aragon-navarra-la rioja",
    "tecnico": "isabel corrales",
    "fase": "fase i",
    "google_maps_address": "cl serrablo, 94, 22600, sabiñanigo, aragon-navarra-la rioja, Spain",
    "lat": 42.51822,
    "lng": -0.3644,
    "is_done": false
  },
  {
    "cod. oficina": 7415,
    "zinc 1  -7119": "san adrian, pz. vera magallon, 11",
    "direccion": "pz vera magallon, 11",
    "plaza": "san adrian",
    "cp": "31570",
    "tipo": "universal",
    "territorial": "aragon-navarra-la rioja",
    "tecnico": "isabel corrales",
    "fase": "fase i",
    "google_maps_address": "pz vera magallon, 11, 31570, san adrian, aragon-navarra-la rioja, Spain",
    "lat": 42.33274,
    "lng": -1.93319,
    "is_done": false
  },
  {
    "cod. oficina": 1141,
    "zinc 1  -7119": "santo domingo de la calzada, av. del rey d. juan carlos i, 3",
    "direccion": "av del rey d. juan carlos i, 3",
    "plaza": "santo domingo de la calzada",
    "cp": "26250",
    "tipo": "universal",
    "territorial": "aragon-navarra-la rioja",
    "tecnico": "isabel corrales",
    "fase": "fase i",
    "google_maps_address": "av del rey d. juan carlos i, 3, 26250, santo domingo de la calzada, aragon-navarra-la rioja, Spain",
    "lat": 42.43929,
    "lng": -2.95406,
    "is_done": false
  },
  {
    "cod. oficina": 84,
    "zinc 1  -7119": "tafalla",
    "direccion": "av severino fernandez, 26",
    "plaza": "tafalla",
    "cp": "31300",
    "tipo": "universal",
    "territorial": "aragon-navarra-la rioja",
    "tecnico": "isabel corrales",
    "fase": "fase i",
    "google_maps_address": "av severino fernandez, 26, 31300, tafalla, aragon-navarra-la rioja, Spain",
    "lat": 42.52767,
    "lng": -1.67421,
    "is_done": false
  },
  {
    "cod. oficina": 833,
    "zinc 1  -7119": "tarazona",
    "direccion": "pz san francisco, 2",
    "plaza": "tarazona",
    "cp": "50500",
    "tipo": "universal",
    "territorial": "aragon-navarra-la rioja",
    "tecnico": "isabel corrales",
    "fase": "fase i",
    "google_maps_address": "pz san francisco, 2, 50500, tarazona, aragon-navarra-la rioja, Spain",
    "lat": 41.90407,
    "lng": -1.72442,
    "is_done": false
  },
  {
    "cod. oficina": 5547,
    "zinc 1  -7119": "utebo",
    "direccion": "av zaragoza, 62",
    "plaza": "utebo",
    "cp": "50180",
    "tipo": "universal",
    "territorial": "aragon-navarra-la rioja",
    "tecnico": "isabel corrales",
    "fase": "fase i",
    "google_maps_address": "av zaragoza, 62, 50180, utebo, aragon-navarra-la rioja, Spain",
    "lat": 41.7046,
    "lng": -0.99933,
    "is_done": false
  },
  {
    "cod. oficina": 2878,
    "zinc 1  -7119": "viana",
    "direccion": "cl conde de san cristobal, 4",
    "plaza": "viana",
    "cp": "31230",
    "tipo": "universal",
    "territorial": "aragon-navarra-la rioja",
    "tecnico": "isabel corrales",
    "fase": "fase i",
    "google_maps_address": "cl conde de san cristobal, 4, 31230, viana, aragon-navarra-la rioja, Spain",
    "lat": 42.50709,
    "lng": -2.36162,
    "is_done": false
  },
  {
    "cod. oficina": 7400,
    "zinc 1  -7119": "villava, serapio huici, 8",
    "direccion": "cl serapio huici, 8",
    "plaza": "villava",
    "cp": "31610",
    "tipo": "universal",
    "territorial": "aragon-navarra-la rioja",
    "tecnico": "isabel corrales",
    "fase": "fase i",
    "google_maps_address": "cl serapio huici, 8, 31610, villava, aragon-navarra-la rioja, Spain",
    "lat": 42.83068,
    "lng": -1.60946,
    "is_done": false
  },
  {
    "cod. oficina": 247,
    "zinc 1  -7119": "zaragoza, ctra. de logroño,40",
    "direccion": "cr de logroño, 40 (bo.casetas)",
    "plaza": "zaragoza",
    "cp": "50620",
    "tipo": "universal",
    "territorial": "aragon-navarra-la rioja",
    "tecnico": "isabel corrales",
    "fase": "fase i",
    "google_maps_address": "cr de logroño, 40 (bo.casetas), 50620, zaragoza, aragon-navarra-la rioja, Spain",
    "lat": 41.73503,
    "lng": -1.06494,
    "is_done": false
  },
  {
    "cod. oficina": 932,
    "zinc 1  -7119": "zaragoza, fdo el catolico,24",
    "direccion": "ps fernando el catolico, 24",
    "plaza": "zaragoza",
    "cp": "50009",
    "tipo": "universal",
    "territorial": "aragon-navarra-la rioja",
    "tecnico": "isabel corrales",
    "fase": "fase i",
    "google_maps_address": "ps fernando el catolico, 24, 50009, zaragoza, aragon-navarra-la rioja, Spain",
    "lat": 41.64251,
    "lng": -0.89374,
    "is_done": false
  },
  {
    "cod. oficina": 4470,
    "zinc 1  -7119": "zaragoza, camino pilon, 61",
    "direccion": "cm pilon, 61 (miralbueno)",
    "plaza": "zaragoza",
    "cp": "50011",
    "tipo": "universal",
    "territorial": "aragon-navarra-la rioja",
    "tecnico": "isabel corrales",
    "fase": "fase i",
    "google_maps_address": "cm pilon, 61 (miralbueno), 50011, zaragoza, aragon-navarra-la rioja, Spain",
    "lat": 41.65847,
    "lng": -0.9324,
    "is_done": false
  },
  {
    "cod. oficina": 5481,
    "zinc 1  -7119": "zaragoza, av cataluña, 96",
    "direccion": "av cataluña, 96",
    "plaza": "zaragoza",
    "cp": "50014",
    "tipo": "universal",
    "territorial": "aragon-navarra-la rioja",
    "tecnico": "isabel corrales",
    "fase": "fase i",
    "google_maps_address": "av cataluña, 96, 50014, zaragoza, aragon-navarra-la rioja, Spain",
    "lat": 41.66252,
    "lng": -0.86331,
    "is_done": false
  },
  {
    "cod. oficina": 5484,
    "zinc 1  -7119": "zaragoza, av. madrid,129-131",
    "direccion": "av  madrid, 129",
    "plaza": "zaragoza",
    "cp": "50010",
    "tipo": "universal",
    "territorial": "aragon-navarra-la rioja",
    "tecnico": "isabel corrales",
    "fase": "fase i",
    "google_maps_address": "av  madrid, 129, 50010, zaragoza, aragon-navarra-la rioja, Spain",
    "lat": 41.65368,
    "lng": -0.90284,
    "is_done": false
  },
  {
    "cod. oficina": 5486,
    "zinc 1  -7119": "zaragoza, alicante, 1",
    "direccion": "cl alicante, 1",
    "plaza": "zaragoza",
    "cp": "50007",
    "tipo": "universal",
    "territorial": "aragon-navarra-la rioja",
    "tecnico": "isabel corrales",
    "fase": "fase i",
    "google_maps_address": "cl alicante, 1, 50007, zaragoza, aragon-navarra-la rioja, Spain",
    "lat": 41.63151,
    "lng": -0.88655,
    "is_done": false
  },
  {
    "cod. oficina": 7086,
    "zinc 1  -7119": "zaragoza, av. cesareo alierta, 43",
    "direccion": "av cesareo alierta, 43",
    "plaza": "zaragoza",
    "cp": "50008",
    "tipo": "universal",
    "territorial": "aragon-navarra-la rioja",
    "tecnico": "isabel corrales",
    "fase": "fase i",
    "google_maps_address": "av cesareo alierta, 43, 50008, zaragoza, aragon-navarra-la rioja, Spain",
    "lat": 41.64183,
    "lng": -0.87474,
    "is_done": false
  },
  {
    "cod. oficina": 3978,
    "zinc 1  -7119": "alcudia",
    "direccion": "pz de carlos v, 3",
    "plaza": "alcudia",
    "cp": "07400",
    "tipo": "universal",
    "territorial": "baleares",
    "tecnico": "david luque",
    "fase": "fase i",
    "google_maps_address": "pz de carlos v, 3, 07400, alcudia, baleares, Spain",
    "lat": 39.85258,
    "lng": 3.12421,
    "is_done": false
  },
  {
    "cod. oficina": 7617,
    "zinc 1  -7119": "andratx, pz. des pou, 2",
    "direccion": "pz des pou, 2",
    "plaza": "andratx",
    "cp": "07150",
    "tipo": "universal",
    "territorial": "baleares",
    "tecnico": "david luque",
    "fase": "fase i",
    "google_maps_address": "pz des pou, 2, 07150, andratx, baleares, Spain",
    "lat": 39.57705,
    "lng": 2.42116,
    "is_done": false
  },
  {
    "cod. oficina": 5563,
    "zinc 1  -7119": "cala d'or (santanyi)",
    "direccion": "av bienvenidos, 10 (mallorca)",
    "plaza": "cala d'or",
    "cp": "07660",
    "tipo": "universal",
    "territorial": "baleares",
    "tecnico": "david luque",
    "fase": "fase i",
    "google_maps_address": "av bienvenidos, 10 (mallorca), 07660, cala d'or, baleares, Spain",
    "lat": 39.37611,
    "lng": 3.22888,
    "is_done": false
  },
  {
    "cod. oficina": 5564,
    "zinc 1  -7119": "cala millor (son servera)",
    "direccion": "cl sol, 15",
    "plaza": "cala millor",
    "cp": "07560",
    "tipo": "universal",
    "territorial": "baleares",
    "tecnico": "david luque",
    "fase": "fase i",
    "google_maps_address": "cl sol, 15, 07560, cala millor, baleares, Spain",
    "lat": 39.62055,
    "lng": 3.36121,
    "is_done": false
  },
  {
    "cod. oficina": 5509,
    "zinc 1  -7119": "cala ratjada (capdepera)",
    "direccion": "cl leonor servera, 61",
    "plaza": "cala ratjada",
    "cp": "07590",
    "tipo": "universal",
    "territorial": "baleares",
    "tecnico": "david luque",
    "fase": "fase i",
    "google_maps_address": "cl leonor servera, 61, 07590, cala ratjada, baleares, Spain",
    "lat": 39.71202,
    "lng": 3.45985,
    "is_done": false
  },
  {
    "cod. oficina": 3008,
    "zinc 1  -7119": "campos , plaza mayor  6",
    "direccion": "pz mayor, 6",
    "plaza": "campos",
    "cp": "07630",
    "tipo": "universal",
    "territorial": "baleares",
    "tecnico": "david luque",
    "fase": "fase i",
    "google_maps_address": "pz mayor, 6, 07630, campos, baleares, Spain",
    "lat": 39.42621,
    "lng": 3.03759,
    "is_done": false
  },
  {
    "cod. oficina": 5906,
    "zinc 1  -7119": "can picafort (santa margalida)",
    "direccion": "ps colon, 86",
    "plaza": "can picafort",
    "cp": "07458",
    "tipo": "universal",
    "territorial": "baleares",
    "tecnico": "david luque",
    "fase": "fase i",
    "google_maps_address": "ps colon, 86, 07458, can picafort, baleares, Spain",
    "lat": 39.7673,
    "lng": 3.15181,
    "is_done": false
  },
  {
    "cod. oficina": 4889,
    "zinc 1  -7119": "ciutadella de menorca, av. capi",
    "direccion": "av capitan negrete, 7",
    "plaza": "ciutadella de menorca",
    "cp": "07760",
    "tipo": "universal",
    "territorial": "baleares",
    "tecnico": "david luque",
    "fase": "fase i",
    "google_maps_address": "av capitan negrete, 7, 07760, ciutadella de menorca, baleares, Spain",
    "lat": 39.99884,
    "lng": 3.83893,
    "is_done": false
  },
  {
    "cod. oficina": 4973,
    "zinc 1  -7119": "eivissa, av.bartomeu de rosello",
    "direccion": "av bartomeu de rossello, 32",
    "plaza": "eivissa",
    "cp": "07800",
    "tipo": "universal",
    "territorial": "baleares",
    "tecnico": "david luque",
    "fase": "fase i",
    "google_maps_address": "av bartomeu de rossello, 32, 07800, eivissa, baleares, Spain",
    "lat": 38.90977,
    "lng": 1.43331,
    "is_done": false
  },
  {
    "cod. oficina": 5255,
    "zinc 1  -7119": "el arenal (llucmajor)",
    "direccion": "av miramar, 5",
    "plaza": "el arenal (llucmajor)",
    "cp": "07600",
    "tipo": "universal",
    "territorial": "baleares",
    "tecnico": "david luque",
    "fase": "fase i",
    "google_maps_address": "av miramar, 5, 07600, el arenal (llucmajor), baleares, Spain",
    "lat": 39.50239,
    "lng": 2.75155,
    "is_done": false
  },
  {
    "cod. oficina": 1045,
    "zinc 1  -7119": "felanitx",
    "direccion": "cl 31 de marc, 6",
    "plaza": "felanitx",
    "cp": "07200",
    "tipo": "universal",
    "territorial": "baleares",
    "tecnico": "david luque",
    "fase": "fase i",
    "google_maps_address": "cl 31 de marc, 6, 07200, felanitx, baleares, Spain",
    "lat": 39.46835,
    "lng": 3.14764,
    "is_done": false
  },
  {
    "cod. oficina": 7622,
    "zinc 1  -7119": "llucmajor, pz. d'espanya, 55",
    "direccion": "pz d'espanya, 55",
    "plaza": "llucmajor",
    "cp": "07620",
    "tipo": "universal",
    "territorial": "baleares",
    "tecnico": "david luque",
    "fase": "fase i",
    "google_maps_address": "pz d'espanya, 55, 07620, llucmajor, baleares, Spain",
    "lat": 39.49055,
    "lng": 2.89102,
    "is_done": false
  },
  {
    "cod. oficina": 45,
    "zinc 1  -7119": "mahon, deya,5",
    "direccion": "cl deya, 5",
    "plaza": "mahon",
    "cp": "07702",
    "tipo": "universal",
    "territorial": "baleares",
    "tecnico": "david luque",
    "fase": "fase i",
    "google_maps_address": "cl deya, 5, 07702, mahon, baleares, Spain",
    "lat": 39.88784,
    "lng": 4.2647,
    "is_done": false
  },
  {
    "cod. oficina": 7623,
    "zinc 1  -7119": "manacor, alexandre rossello, 1",
    "direccion": "cl alexandre rossello, 1",
    "plaza": "manacor",
    "cp": "07500",
    "tipo": "universal",
    "territorial": "baleares",
    "tecnico": "david luque",
    "fase": "fase i",
    "google_maps_address": "cl alexandre rossello, 1, 07500, manacor, baleares, Spain",
    "lat": 39.56972,
    "lng": 3.20953,
    "is_done": false
  },
  {
    "cod. oficina": 7672,
    "zinc 1  -7119": "marratxi",
    "direccion": "cl celleters, 35",
    "plaza": "marratxi",
    "cp": "07141",
    "tipo": "universal",
    "territorial": "baleares",
    "tecnico": "david luque",
    "fase": "fase i",
    "google_maps_address": "cl celleters, 35, 07141, marratxi, baleares, Spain",
    "lat": 39.62308,
    "lng": 2.72119,
    "is_done": false
  },
  {
    "cod. oficina": 5755,
    "zinc 1  -7119": "palma, general riera,52",
    "direccion": "cl general riera, 52",
    "plaza": "palma de mallorca",
    "cp": "07010",
    "tipo": "universal",
    "territorial": "baleares",
    "tecnico": "david luque",
    "fase": "fase i",
    "google_maps_address": "cl general riera, 52, 07010, palma de mallorca, baleares, Spain",
    "lat": 39.58322,
    "lng": 2.64681,
    "is_done": false
  },
  {
    "cod. oficina": 6081,
    "zinc 1  -7119": "palma, marques de la cenia,44",
    "direccion": "cl marques de la cenia, 44",
    "plaza": "palma de mallorca",
    "cp": "07014",
    "tipo": "universal",
    "territorial": "baleares",
    "tecnico": "david luque",
    "fase": "fase i",
    "google_maps_address": "cl marques de la cenia, 44, 07014, palma de mallorca, baleares, Spain",
    "lat": 39.56821,
    "lng": 2.62904,
    "is_done": false
  },
  {
    "cod. oficina": 7638,
    "zinc 1  -7119": "pollença, pollentia, 1",
    "direccion": "cl pollentia, 1",
    "plaza": "pollença",
    "cp": "07460",
    "tipo": "universal",
    "territorial": "baleares",
    "tecnico": "david luque",
    "fase": "fase i",
    "google_maps_address": "cl pollentia, 1, 07460, pollença, baleares, Spain",
    "lat": 39.87605,
    "lng": 3.01759,
    "is_done": false
  },
  {
    "cod. oficina": 7664,
    "zinc 1  -7119": "portals nous",
    "direccion": "ed ponent, s/n (lc20-21)",
    "plaza": "portals nous",
    "cp": "07181",
    "tipo": "universal",
    "territorial": "baleares",
    "tecnico": "david luque",
    "fase": "fase i",
    "google_maps_address": "ed ponent, s/n (lc20-21), 07181, portals nous, baleares, Spain",
    "lat": 39.53481,
    "lng": 2.57127,
    "is_done": false
  },
  {
    "cod. oficina": 7651,
    "zinc 1  -7119": "sant francesc",
    "direccion": "cl jaume i, 28",
    "plaza": "sant francesc",
    "cp": "07860",
    "tipo": "universal",
    "territorial": "baleares",
    "tecnico": "david luque",
    "fase": "fase i",
    "google_maps_address": "cl jaume i, 28, 07860, sant francesc, baleares, Spain",
    "lat": 38.70607,
    "lng": 1.4302,
    "is_done": false
  },
  {
    "cod. oficina": 5935,
    "zinc 1  -7119": "santa eularia del rio , de la alameda  3",
    "direccion": "ps de la alameda, 3",
    "plaza": "santa eulalia del rio",
    "cp": "07840",
    "tipo": "universal",
    "territorial": "baleares",
    "tecnico": "david luque",
    "fase": "fase i",
    "google_maps_address": "ps de la alameda, 3, 07840, santa eulalia del rio, baleares, Spain",
    "lat": 38.98553,
    "lng": 1.52813,
    "is_done": false
  },
  {
    "cod. oficina": 3035,
    "zinc 1  -7119": "santa ponsa , rei jaume i  92",
    "direccion": "av rei jaume i, 92",
    "plaza": "santa ponsa",
    "cp": "07180",
    "tipo": "universal",
    "territorial": "baleares",
    "tecnico": "david luque",
    "fase": "fase i",
    "google_maps_address": "av rei jaume i, 92, 07180, santa ponsa, baleares, Spain",
    "lat": 39.51434,
    "lng": 2.48191,
    "is_done": false
  },
  {
    "cod. oficina": 176,
    "zinc 1  -7119": "soller",
    "direccion": "pz constitucion, 21",
    "plaza": "soller",
    "cp": "07100",
    "tipo": "universal",
    "territorial": "baleares",
    "tecnico": "david luque",
    "fase": "fase i",
    "google_maps_address": "pz constitucion, 21, 07100, soller, baleares, Spain",
    "lat": 39.76631,
    "lng": 2.71513,
    "is_done": false
  },
  {
    "cod. oficina": 4601,
    "zinc 1  -7119": "adeje",
    "direccion": "cl grande, 48",
    "plaza": "adeje",
    "cp": "38670",
    "tipo": "universal",
    "territorial": "canarias",
    "tecnico": "xavier padros",
    "fase": "fase i",
    "google_maps_address": "cl grande, 48, 38670, adeje, canarias, Spain",
    "lat": 28.1212,
    "lng": -16.72532,
    "is_done": false
  },
  {
    "cod. oficina": 1751,
    "zinc 1  -7119": "aguimes",
    "direccion": "av polizon, 123 (playa de arinaga)",
    "plaza": "aguimes",
    "cp": "35260",
    "tipo": "universal",
    "territorial": "canarias",
    "tecnico": "xavier padros",
    "fase": "fase i",
    "google_maps_address": "av polizon, 123 (playa de arinaga), 35260, aguimes, canarias, Spain",
    "lat": 27.8594,
    "lng": -15.39946,
    "is_done": false
  },
  {
    "cod. oficina": 549,
    "zinc 1  -7119": "breña alta",
    "direccion": "cl treinta de mayo, 34",
    "plaza": "breña alta",
    "cp": "38710",
    "tipo": "universal",
    "territorial": "canarias",
    "tecnico": "xavier padros",
    "fase": "fase i",
    "google_maps_address": "cl treinta de mayo, 34, 38710, breña alta, canarias, Spain",
    "lat": 28.66409,
    "lng": -17.7871,
    "is_done": false
  },
  {
    "cod. oficina": 4168,
    "zinc 1  -7119": "corralejo (la oliva), av. nuestra señora del carmen, 5",
    "direccion": "av nuestra señora del carmen, 5",
    "plaza": "corralejo (la oliva)",
    "cp": "35660",
    "tipo": "universal",
    "territorial": "canarias",
    "tecnico": "xavier padros",
    "fase": "fase i",
    "google_maps_address": "av nuestra señora del carmen, 5, 35660, corralejo (la oliva), canarias, Spain",
    "lat": 28.7361,
    "lng": -13.86862,
    "is_done": false
  },
  {
    "cod. oficina": 5059,
    "zinc 1  -7119": "bajada de las guayarminas",
    "direccion": "cl bajada de las guayarminas, s/n",
    "plaza": "galdar",
    "cp": "35460",
    "tipo": "universal",
    "territorial": "canarias",
    "tecnico": "xavier padros",
    "fase": "fase i",
    "google_maps_address": "cl bajada de las guayarminas, s/n, 35460, galdar, canarias, Spain",
    "lat": 28.14313,
    "lng": -15.65385,
    "is_done": false
  },
  {
    "cod. oficina": 4791,
    "zinc 1  -7119": "galletas",
    "direccion": "av fernando salazar gonzalez, s-n",
    "plaza": "galletas",
    "cp": "38631",
    "tipo": "universal",
    "territorial": "canarias",
    "tecnico": "xavier padros",
    "fase": "fase i",
    "google_maps_address": "av fernando salazar gonzalez, s-n, 38631, galletas, canarias, Spain",
    "lat": 28.00897,
    "lng": -16.65362,
    "is_done": false
  },
  {
    "cod. oficina": 309,
    "zinc 1  -7119": "guia de isora",
    "direccion": "cl ayuntamiento, 8",
    "plaza": "guia de isora",
    "cp": "38680",
    "tipo": "universal",
    "territorial": "canarias",
    "tecnico": "xavier padros",
    "fase": "fase i",
    "google_maps_address": "cl ayuntamiento, 8, 38680, guia de isora, canarias, Spain",
    "lat": 28.2094,
    "lng": -16.7783,
    "is_done": false
  },
  {
    "cod. oficina": 4954,
    "zinc 1  -7119": "guimar",
    "direccion": "cl obispo perez caceres, 26",
    "plaza": "guimar",
    "cp": "38500",
    "tipo": "universal",
    "territorial": "canarias",
    "tecnico": "xavier padros",
    "fase": "fase i",
    "google_maps_address": "cl obispo perez caceres, 26, 38500, guimar, canarias, Spain",
    "lat": 28.31507,
    "lng": -16.41064,
    "is_done": false
  },
  {
    "cod. oficina": 552,
    "zinc 1  -7119": "ingenio",
    "direccion": "cl juliano bonny gomez, 1",
    "plaza": "ingenio",
    "cp": "35250",
    "tipo": "universal",
    "territorial": "canarias",
    "tecnico": "xavier padros",
    "fase": "fase i",
    "google_maps_address": "cl juliano bonny gomez, 1, 35250, ingenio, canarias, Spain",
    "lat": 27.91827,
    "lng": -15.43292,
    "is_done": false
  },
  {
    "cod. oficina": 471,
    "zinc 1  -7119": "las palmas, pedro infinito,15",
    "direccion": "cl pedro infinito, 15",
    "plaza": "las palmas g. canaria",
    "cp": "35012",
    "tipo": "universal",
    "territorial": "canarias",
    "tecnico": "xavier padros",
    "fase": "fase i",
    "google_maps_address": "cl pedro infinito, 15, 35012, las palmas g. canaria, canarias, Spain",
    "lat": 28.11003,
    "lng": -15.43144,
    "is_done": false
  },
  {
    "cod. oficina": 1156,
    "zinc 1  -7119": "las palmas, luis doreste silva",
    "direccion": "cl luis doreste silva, 52",
    "plaza": "las palmas g. canaria",
    "cp": "35004",
    "tipo": "universal",
    "territorial": "canarias",
    "tecnico": "xavier padros",
    "fase": "fase i",
    "google_maps_address": "cl luis doreste silva, 52, 35004, las palmas g. canaria, canarias, Spain",
    "lat": 28.11938,
    "lng": -15.42378,
    "is_done": false
  },
  {
    "cod. oficina": 1306,
    "zinc 1  -7119": "las palmas, av. escaleritas,68",
    "direccion": "av escaleritas, 68",
    "plaza": "las palmas g. canaria",
    "cp": "35011",
    "tipo": "universal",
    "territorial": "canarias",
    "tecnico": "xavier padros",
    "fase": "fase i",
    "google_maps_address": "av escaleritas, 68, 35011, las palmas g. canaria, canarias, Spain",
    "lat": 28.1184,
    "lng": -15.43754,
    "is_done": false
  },
  {
    "cod. oficina": 3724,
    "zinc 1  -7119": "las palmas, callao,2",
    "direccion": "cl callao, 2",
    "plaza": "las palmas g. canaria",
    "cp": "35010",
    "tipo": "universal",
    "territorial": "canarias",
    "tecnico": "xavier padros",
    "fase": "fase i",
    "google_maps_address": "cl callao, 2, 35010, las palmas g. canaria, canarias, Spain",
    "lat": 28.13183,
    "lng": -15.44089,
    "is_done": false
  },
  {
    "cod. oficina": 4132,
    "zinc 1  -7119": "las palmas, pintor felo monzon,43",
    "direccion": "av pintor felo monzon, 43",
    "plaza": "las palmas g. canaria",
    "cp": "35019",
    "tipo": "universal",
    "territorial": "canarias",
    "tecnico": "xavier padros",
    "fase": "fase i",
    "google_maps_address": "av pintor felo monzon, 43, 35019, las palmas g. canaria, canarias, Spain",
    "lat": 28.09578,
    "lng": -15.45508,
    "is_done": false
  },
  {
    "cod. oficina": 4950,
    "zinc 1  -7119": "los cristianos (arona) , del pescador  4",
    "direccion": "pz del pescador, 4",
    "plaza": "los cristianos-arona",
    "cp": "38650",
    "tipo": "universal",
    "territorial": "canarias",
    "tecnico": "xavier padros",
    "fase": "fase i",
    "google_maps_address": "pz del pescador, 4, 38650, los cristianos-arona, canarias, Spain",
    "lat": 28.04891,
    "lng": -16.7116,
    "is_done": false
  },
  {
    "cod. oficina": 416,
    "zinc 1  -7119": "los realejos, viera y clavijo,9",
    "direccion": "pz de viera y clavijo, 9",
    "plaza": "los realejos",
    "cp": "38410",
    "tipo": "universal",
    "territorial": "canarias",
    "tecnico": "xavier padros",
    "fase": "fase i",
    "google_maps_address": "pz de viera y clavijo, 9, 38410, los realejos, canarias, Spain",
    "lat": 28.38246,
    "lng": -16.58708,
    "is_done": false
  },
  {
    "cod. oficina": 7122,
    "zinc 1  -7119": "mogan-arguineguin, cr. general, 7",
    "direccion": "cr general, 7",
    "plaza": "mogan-arguineguin",
    "cp": "35120",
    "tipo": "universal",
    "territorial": "canarias",
    "tecnico": "xavier padros",
    "fase": "fase i",
    "google_maps_address": "cr general, 7, 35120, mogan-arguineguin, canarias, Spain",
    "lat": 27.7587,
    "lng": -15.67944,
    "is_done": false
  },
  {
    "cod. oficina": 5878,
    "zinc 1  -7119": "morro jable (pajara)",
    "direccion": "av jandia, s-n",
    "plaza": "morro jable (pajara)",
    "cp": "35625",
    "tipo": "universal",
    "territorial": "canarias",
    "tecnico": "xavier padros",
    "fase": "fase i",
    "google_maps_address": "av jandia, s-n, 35625, morro jable (pajara), canarias, Spain",
    "lat": 28.05052,
    "lng": -14.34883,
    "is_done": false
  },
  {
    "cod. oficina": 6004,
    "zinc 1  -7119": "pajara",
    "direccion": "cl l.t.u. 2, cc sotavento, 12 (costa calma)",
    "plaza": "pajara",
    "cp": "35627",
    "tipo": "universal",
    "territorial": "canarias",
    "tecnico": "xavier padros",
    "fase": "fase i",
    "google_maps_address": "cl l.t.u. 2, cc sotavento, 12 (costa calma), 35627, pajara, canarias, Spain",
    "lat": 28.16501,
    "lng": -14.22291,
    "is_done": false
  },
  {
    "cod. oficina": 4214,
    "zinc 1  -7119": "playa blanca-yaiza, pz. nuestra señora del carmen, 11",
    "direccion": "pz nuestra señora del carmen, 11",
    "plaza": "playa blanca-yaiza",
    "cp": "35570",
    "tipo": "universal",
    "territorial": "canarias",
    "tecnico": "xavier padros",
    "fase": "fase i",
    "google_maps_address": "pz nuestra señora del carmen, 11, 35570, playa blanca-yaiza, canarias, Spain",
    "lat": 28.86295,
    "lng": -13.82729,
    "is_done": false
  },
  {
    "cod. oficina": 5884,
    "zinc 1  -7119": "playa americas, av.palmeras",
    "direccion": "av de las palmeras, s-n (c. comecial colon)",
    "plaza": "playa de las americas",
    "cp": "38660",
    "tipo": "universal",
    "territorial": "canarias",
    "tecnico": "xavier padros",
    "fase": "fase i",
    "google_maps_address": "av de las palmeras, s-n (c. comecial colon), 38660, playa de las americas, canarias, Spain",
    "lat": 28.0611,
    "lng": -16.73242,
    "is_done": false
  },
  {
    "cod. oficina": 1170,
    "zinc 1  -7119": "playa ingles, av. tirajana,7",
    "direccion": "av de tirajana, 7",
    "plaza": "playa del ingles",
    "cp": "35100",
    "tipo": "universal",
    "territorial": "canarias",
    "tecnico": "xavier padros",
    "fase": "fase i",
    "google_maps_address": "av de tirajana, 7, 35100, playa del ingles, canarias, Spain",
    "lat": 27.75303,
    "lng": -15.57779,
    "is_done": false
  },
  {
    "cod. oficina": 5735,
    "zinc 1  -7119": "playa ingles, av. tirajana,27",
    "direccion": "av tirajana, 27",
    "plaza": "playa del ingles",
    "cp": "35100",
    "tipo": "universal",
    "territorial": "canarias",
    "tecnico": "xavier padros",
    "fase": "fase i",
    "google_maps_address": "av tirajana, 27, 35100, playa del ingles, canarias, Spain",
    "lat": 27.76046,
    "lng": -15.57931,
    "is_done": false
  },
  {
    "cod. oficina": 290,
    "zinc 1  -7119": "pto de la cruz, po. s. juan,9",
    "direccion": "ps san juan, 9",
    "plaza": "puerto de la cruz",
    "cp": "38400",
    "tipo": "universal",
    "territorial": "canarias",
    "tecnico": "xavier padros",
    "fase": "fase i",
    "google_maps_address": "ps san juan, 9, 38400, puerto de la cruz, canarias, Spain",
    "lat": 28.41665,
    "lng": -16.54977,
    "is_done": false
  },
  {
    "cod. oficina": 5876,
    "zinc 1  -7119": "pto. del carmen, av. playas,35",
    "direccion": "av de las playas, 35 (c.c. los arco)",
    "plaza": "puerto del carmen",
    "cp": "35510",
    "tipo": "universal",
    "territorial": "canarias",
    "tecnico": "xavier padros",
    "fase": "fase i",
    "google_maps_address": "av de las playas, 35 (c.c. los arco), 35510, puerto del carmen, canarias, Spain",
    "lat": 28.91972,
    "lng": -13.65222,
    "is_done": false
  },
  {
    "cod. oficina": 5872,
    "zinc 1  -7119": "puerto rico (mogan)",
    "direccion": "av tomas roca bosch, s-n (ctro.civico)",
    "plaza": "puerto rico (mogan)",
    "cp": "35130",
    "tipo": "universal",
    "territorial": "canarias",
    "tecnico": "xavier padros",
    "fase": "fase i",
    "google_maps_address": "av tomas roca bosch, s-n (ctro.civico), 35130, puerto rico (mogan), canarias, Spain",
    "lat": 27.79278,
    "lng": -15.70712,
    "is_done": false
  },
  {
    "cod. oficina": 4406,
    "zinc 1  -7119": "san bartolome de lanzarote,c.c.",
    "direccion": "cl chimidas, 20 (c.c.deiland local o-66-b playa honda)",
    "plaza": "s.bart.de lanzarote",
    "cp": "35509",
    "tipo": "universal",
    "territorial": "canarias",
    "tecnico": "xavier padros",
    "fase": "fase i",
    "google_maps_address": "cl chimidas, 20 (c.c.deiland local o-66-b playa honda), 35509, s.bart.de lanzarote, canarias, Spain",
    "lat": 28.95641,
    "lng": -13.58855,
    "is_done": false
  },
  {
    "cod. oficina": 550,
    "zinc 1  -7119": "san andres y sauces",
    "direccion": "cl alonso perez diaz, 6",
    "plaza": "san andres y sauces",
    "cp": "38720",
    "tipo": "universal",
    "territorial": "canarias",
    "tecnico": "xavier padros",
    "fase": "fase i",
    "google_maps_address": "cl alonso perez diaz, 6, 38720, san andres y sauces, canarias, Spain",
    "lat": 28.80402,
    "lng": -17.77455,
    "is_done": false
  },
  {
    "cod. oficina": 4166,
    "zinc 1  -7119": "san eugenio-adeje",
    "direccion": "cr c cial san eugenio, (lc 58)",
    "plaza": "san eugenio-adeje",
    "cp": "38660",
    "tipo": "universal",
    "territorial": "canarias",
    "tecnico": "xavier padros",
    "fase": "fase i",
    "google_maps_address": "cr c cial san eugenio, (lc 58), 38660, san eugenio-adeje, canarias, Spain",
    "lat": 28.0764,
    "lng": -16.7317,
    "is_done": false
  },
  {
    "cod. oficina": 5889,
    "zinc 1  -7119": "granadilla abona , de santa cruz  150",
    "direccion": "av de santa cruz, 150",
    "plaza": "san isidro",
    "cp": "38611",
    "tipo": "universal",
    "territorial": "canarias",
    "tecnico": "xavier padros",
    "fase": "fase i",
    "google_maps_address": "av de santa cruz, 150, 38611, san isidro, canarias, Spain",
    "lat": 28.31981,
    "lng": -16.40661,
    "is_done": false
  },
  {
    "cod. oficina": 7117,
    "zinc 1  -7119": "san miguel",
    "direccion": "cr autopista del sur km., 62,5 (c.gral.los abrigos)",
    "plaza": "san miguel",
    "cp": "38639",
    "tipo": "universal",
    "territorial": "canarias",
    "tecnico": "xavier padros",
    "fase": "fase i",
    "google_maps_address": "cr autopista del sur km., 62,5 (c.gral.los abrigos), 38639, san miguel, canarias, Spain",
    "lat": 28.21155,
    "lng": -16.42403,
    "is_done": false
  },
  {
    "cod. oficina": 5318,
    "zinc 1  -7119": "san sebastian de la gomera",
    "direccion": "cl real, 7",
    "plaza": "san sebastian gomera",
    "cp": "38800",
    "tipo": "universal",
    "territorial": "canarias",
    "tecnico": "xavier padros",
    "fase": "fase i",
    "google_maps_address": "cl real, 7, 38800, san sebastian gomera, canarias, Spain",
    "lat": 28.09118,
    "lng": -17.11058,
    "is_done": false
  },
  {
    "cod. oficina": 5510,
    "zinc 1  -7119": "santa brigida",
    "direccion": "cl nueva, 4",
    "plaza": "santa brigida",
    "cp": "35300",
    "tipo": "universal",
    "territorial": "canarias",
    "tecnico": "xavier padros",
    "fase": "fase i",
    "google_maps_address": "cl nueva, 4, 35300, santa brigida, canarias, Spain",
    "lat": 28.03425,
    "lng": -15.499,
    "is_done": false
  },
  {
    "cod. oficina": 5322,
    "zinc 1  -7119": "sta. cruz tf, pedro mendoza",
    "direccion": "gl pedro de mendoza, s-n",
    "plaza": "santa cruz de tenerife",
    "cp": "38005",
    "tipo": "universal",
    "territorial": "canarias",
    "tecnico": "xavier padros",
    "fase": "fase i",
    "google_maps_address": "gl pedro de mendoza, s-n, 38005, santa cruz de tenerife, canarias, Spain",
    "lat": 28.45967,
    "lng": -16.25706,
    "is_done": false
  },
  {
    "cod. oficina": 5323,
    "zinc 1  -7119": "sta. cruz tf, mendez nuñez,39",
    "direccion": "cl mendez nuñez, 39",
    "plaza": "santa cruz de tenerife",
    "cp": "38001",
    "tipo": "universal",
    "territorial": "canarias",
    "tecnico": "xavier padros",
    "fase": "fase i",
    "google_maps_address": "cl mendez nuñez, 39, 38001, santa cruz de tenerife, canarias, Spain",
    "lat": 28.47315,
    "lng": -16.25146,
    "is_done": false
  },
  {
    "cod. oficina": 1785,
    "zinc 1  -7119": "santa lucia de tirajana",
    "direccion": "av de canarias, 448",
    "plaza": "sta.lucia de tirajana",
    "cp": "35110",
    "tipo": "universal",
    "territorial": "canarias",
    "tecnico": "xavier padros",
    "fase": "fase i",
    "google_maps_address": "av de canarias, 448, 35110, sta.lucia de tirajana, canarias, Spain",
    "lat": 27.84039,
    "lng": -15.44827,
    "is_done": false
  },
  {
    "cod. oficina": 347,
    "zinc 1  -7119": "valverde",
    "direccion": "cl doctor quintero, 4",
    "plaza": "valverde",
    "cp": "38900",
    "tipo": "universal",
    "territorial": "canarias",
    "tecnico": "xavier padros",
    "fase": "fase i",
    "google_maps_address": "cl doctor quintero, 4, 38900, valverde, canarias, Spain",
    "lat": 27.80722,
    "lng": -17.91537,
    "is_done": false
  },
  {
    "cod. oficina": 429,
    "zinc 1  -7119": "vega de san mateo",
    "direccion": "av de tinamar, 32",
    "plaza": "vega de san mateo",
    "cp": "35320",
    "tipo": "universal",
    "territorial": "canarias",
    "tecnico": "xavier padros",
    "fase": "fase i",
    "google_maps_address": "av de tinamar, 32, 35320, vega de san mateo, canarias, Spain",
    "lat": 28.01033,
    "lng": -15.53157,
    "is_done": false
  },
  {
    "cod. oficina": 4621,
    "zinc 1  -7119": "ampuero",
    "direccion": "cl onesimo redondo, 2",
    "plaza": "ampuero",
    "cp": "39840",
    "tipo": "universal",
    "territorial": "cantabria-asturias",
    "tecnico": "pablo arvilla",
    "fase": "fase i",
    "google_maps_address": "cl onesimo redondo, 2, 39840, ampuero, cantabria-asturias, Spain",
    "lat": 43.3423,
    "lng": -3.4177,
    "is_done": false
  },
  {
    "cod. oficina": 4861,
    "zinc 1  -7119": "cabezon de la sal",
    "direccion": "pz de la paz, 7-9",
    "plaza": "cabezon de la sal",
    "cp": "39500",
    "tipo": "universal",
    "territorial": "cantabria-asturias",
    "tecnico": "pablo arvilla",
    "fase": "fase i",
    "google_maps_address": "pz de la paz, 7-9, 39500, cabezon de la sal, cantabria-asturias, Spain",
    "lat": 43.30908,
    "lng": -4.23766,
    "is_done": false
  },